     2.11           OBSERVATION DATA    G (GPS)             RINEX VERSION / TYPE
teqc  2008Feb15                         20090701 00:35:01UTCPGM / RUN BY / DATE
Linux 2.4.20-8|Pentium IV|gcc -static|Linux|486/DX+         COMMENT
     2.10           Observation data    G (GPS)             COMMENT
sbf2rin                                 (01-JUL-09 00:35)   COMMENT
LLI: only bit 0 (loss of lock bit) supported                COMMENT
ROAP                                                        MARKER NAME
13402M006                                                   MARKER NUMBER
HEP                 ROA                                     OBSERVER / AGENCY
1225                SEPT POLARX2        2.7.0               REC # / TYPE / VERS
3392                SEN67157596+CR  NONE                    ANT # / TYPE
  5105509.7546  -555200.6252  3769790.2558                  APPROX POSITION XYZ
        1.1113       -0.3808       -0.0234                  ANTENNA: DELTA H/E/N
     1     1                                                WAVELENGTH FACT L1/2
     5    C1    L1    L2    P2    P1                        # / TYPES OF OBSERV
    30.0000                                                 INTERVAL
  2009     6    30     0     0    0.0000000     GPS         TIME OF FIRST OBS
                                                            COMMENT
                                                            END OF HEADER
 09  6 30  0  0  0.0000000  0 10G22G 7G 3G 6G11G32G 8G16G18G19
  21588975.128 9 113450866.879 9  88403263.690 9  21588969.447 9  21588974.094 9
  24181922.872 8 127076873.653 8  99020940.075 6  24181919.278 6  24181922.343 6
  20098990.272 9 105620965.615 9  82302051.293 9  20098987.221 9  20098989.213 9
  20726622.646 9 108919212.942 9  84872125.502 9  20726619.880 9  20726621.916 9
  23491958.892 8 123451075.892 8  96195635.528 6  23491955.509 6  23491959.001 6
  24354785.371 7 127985265.800 7
  24977573.923 7 131258044.895 7 102278985.117 5  24977573.259 5  24977573.024 5
  22419962.756 9 117817731.702 9  91806027.109 8  22419958.778 8  22419961.663 8
  23677440.365 8 124425842.168 8  96955206.485 7  23677436.609 7  23677439.389 7
  20989383.061 9 110300000.393 9  85948050.941 9  20989377.529 9  20989381.464 9
 09  6 30  0  0 30.0000000  0 10G22G 7G 3G 6G11G32G 8G16G18G19
  21593308.277 9 113473639.875 9  88421008.885 9  21593302.846 9  21593307.712 9
  24188497.787 7 127111429.623 7  99047866.800 6  24188494.608 6  24188498.077 6
  20099958.297 9 105626052.165 9  82306014.834 9  20099955.147 9  20099957.295 9
  20730215.031 9 108938091.152 9  84886835.795 9  20730212.015 9  20730214.318 9
  23475999.754 8 123367208.148 8  96130284.034 6  23475996.550 6  23475999.297 6
  24333411.537 7 127872941.780 7  99641245.52915  24333408.038 5  24333410.465 5
  24972176.096 7 131229680.576 7 102256883.032 4  24972175.347 4  24972175.508 4
  22437952.040 9 117912268.413 9  91879692.074 8  22437948.536 8  22437951.305 8
  23690609.622 8 124495048.916 8  97009133.789 7  23690606.163 7  23690608.798 7
  20982297.156 9 110262763.329 9  85919035.038 9  20982291.422 9  20982295.671 9
 09  6 30  0  1  0.0000000  0 10G22G 7G 3G 6G11G32G 8G16G18G19
  21597745.829 9 113496958.783 9  88439179.468 9  21597740.437 9  21597745.319 9
  24195156.027 7 127146416.573 7  99075129.364 6  24195152.466 6  24195155.655 6
  20100993.074 9 105631490.067 9  82310252.156 9  20100990.204 9  20100991.885 9
  20733861.378 9 108957252.283 9  84901766.535 9  20733858.115 9  20733860.451 9
  23460071.716 8 123283505.647 8  96065061.334 6  23460068.794 6  23460070.675 6
  24312041.921 7 127760641.222 7  99553738.636 5  24312039.077 5  24312038.831 5
  24966882.250 7 131201859.214 7 102235204.046 4  24966881.193 4  24966881.023 4
  22455995.159 9 118007082.774 9  91953573.387 8  22455991.510 8  22455994.112 8
  23703849.427 8 124564622.542 8  97063347.015 7  23703845.485 7  23703848.672 7
  20975248.617 9 110225722.305 9  85890171.889 9  20975243.015 9  20975246.989 9
 09  6 30  0  1 30.0000000  0 10G22G 7G 3G 6G11G32G 8G16G18G19
  21602286.947 9 113520822.932 9  88457774.916 9  21602281.883 9  21602286.267 9
  24201895.380 7 127181832.737 7  99102726.358 6  24201892.446 6  24201895.187 6
  20102094.900 9 105637279.821 9  82314763.650 9  20102091.879 9  20102093.818 9
  20737561.479 9 108976696.875 9  84916918.158 9  20737558.513 9  20737560.488 9
  23444175.122 8 123199969.104 8  95999967.959 7  23444172.349 7  23444174.483 7
  24290676.134 7 127648366.816 7  99466252.115 5  24290673.882 5  24290675.528 5
  24961691.881 7 131174580.983 7 102213948.288 5  24961690.652 5  24961690.250 5
  22474089.843 9 118102172.766 9  92027669.484 8  22474086.439 8  22474088.883 8
  23717158.199 8 124634560.954 8  97117844.492 6  23717154.171 6  23717157.343 6
  20968237.493 9 110188878.272 9  85861462.255 9  20968231.806 9  20968235.804 9
 09  6 30  0  2  0.0000000  0 10G22G 7G 3G 6G11G32G 8G16G18G19
  21606931.714 9 113545231.363 9  88476794.478 9  21606926.437 9  21606930.990 9
  24208716.847 7 127217675.682 7  99130655.921 6  24208713.210 6  24208715.245 6
  20103263.794 9 105643421.994 9  82319549.756 9  20103260.706 9  20103262.729 9
  20741315.878 9 108996425.707 9  84932291.272 9  20741312.711 9  20741314.706 9
  23428310.206 8 123116599.126 8  95935004.373 6  23428307.548 6  23428309.756 6
  24269316.703 7 127536121.159 7  99378787.967 5  24269313.898 5  24269316.534 5
  24956603.754 7 131147846.581 7 102193116.298 5  24956602.055 5  24956603.349 5
  22492236.971 9 118197535.921 9  92101978.425 8  22492233.493 8  22492235.729 8
  23730536.447 8 124704862.116 8  97172624.593 7  23730531.966 7  23730535.260 7
  20961263.943 9 110152232.185 9  85832906.866 9  20961258.270 9  20961262.445 9
 09  6 30  0  2 30.0000000  0 10G22G 7G 3G 6G11G32G 8G16G18G19
  21611679.941 9 113570183.171 9  88496237.451 9  21611674.749 9  21611679.188 9
  24215617.799 7 127253943.376 7  99158916.470 6  24215614.826 6  24215616.804 6
  20104499.692 9 105649917.171 9  82324610.930 9  20104496.573 9  20104498.621 9
  20745124.313 9 109016439.239 9  84947886.233 9  20745121.090 9  20745123.355 9
  23412477.293 8 123033396.030 8  95870170.809 6  23412474.536 6  23412476.774 6
  24247962.954 7 127423906.959 7  99291348.399 5  24247960.265 5  24247961.615 5
  24951620.042 7 131121656.575 7 102172708.564 4  24951617.734 4  24951619.183 4
  22510435.701 8 118293170.123 8  92176498.575 8  22510432.298 8  22510434.450 8
  23743982.567 8 124775523.834 8  97227685.677 7  23743978.741 7  23743981.614 7
  20954328.170 9 110115784.841 9  85804506.339 9  20954322.626 9  20954326.665 9
 09  6 30  0  3  0.0000000  0 10G22G 7G 3G 6G11G32G 8G16G18G19
  21616531.367 9 113595677.660 9  88516103.296 9  21616526.085 9  21616530.550 9
  24222599.638 7 127290633.583 7  99187506.251 6  24222596.955 6  24222598.686 6
  20105802.969 9 105656766.016 9  82329947.690 9  20105799.829 9  20105801.895 9
  20748987.020 9 109036738.043 9  84963703.486 9  20748983.911 9  20748986.234 9
  23396676.260 8 122950360.303 8  95805467.657 7  23396672.868 7  23396675.920 7
  24226615.733 7 127311726.789 7  99203935.320 6  24226613.318 6  24226614.001 6
  24946740.336 7 131096011.270 7 102152725.161 5  24946737.050 5  24946739.215 5
  22528685.175 9 118389072.914 9  92251228.011 8  22528681.760 8  22528684.323 8
  23757497.413 8 124846544.367 8  97283026.375 7  23757493.360 7  23757495.782 7
  20947430.427 9 110079537.087 9  85776261.342 9  20947424.782 9  20947429.112 9
 09  6 30  0  3 30.0000000  0 10G22G 7G 3G 6G11G32G 8G16G18G19
  21621485.637 9 113621713.435 9  88536390.928 9  21621480.445 9  21621485.001 9
  24229661.565 7 127327743.877 7  99216423.357 6  24229659.036 6  24229660.516 6
  20107173.904 9 105663969.676 9  82335560.933 9  20107170.755 9  20107172.755 9
  20752904.198 9 109057322.851 9  84979743.595 9  20752901.100 9  20752903.214 9
  23380906.588 8 122867492.453 8  95740895.318 6  23380903.395 6  23380906.333 6
  24205275.542 7 127199583.533 7  99116551.012 5  24205273.140 5  24205274.002 5
  24941965.075 7 131070911.279 7 102133166.708 5  24941960.496 5  24941962.628 5
  22546985.596 9 118485242.212 9  92326165.125 8  22546981.936 8  22546984.837 8
  23771079.983 8 124917921.572 8  97338644.984 7  23771076.189 7  23771078.765 7
  20940571.051 9 110043489.919 9  85748172.648 9  20940565.525 9  20940569.231 9
 09  6 30  0  4  0.0000000  0 10G22G 7G 3G 6G11G32G 8G16G18G19
  21626543.064 9 113648289.778 9  88557099.774 9  21626537.497 9  21626542.235 9
  24236802.882 7 127365272.025 7  99245666.050 6  24236801.087 6  24236802.419 6
  20108612.183 9 105671528.335 9  82341450.799 9  20108609.130 9  20108611.116 9
  20756875.913 9 109078194.286 9  84996007.050 9  20756872.847 9  20756875.057 9
  23365169.494 8 122784793.088 8  95676454.291 7  23365165.799 7  23365169.263 7
  24183942.293 7 127087479.760 7  99029197.453 6  24183940.514 6  24183941.709 6
  24937291.722 7 131046357.005 7 102114033.520 4  24937288.457 4  24937289.333 4
  22565336.607 9 118581675.627 9  92401308.037 8  22565332.526 8  22565335.512 8
  23784730.233 8 124989652.949 8  97394539.541 6  23784725.911 6  23784729.036 6
  20933749.534 9 110007644.522 9  85720241.182 9  20933744.229 9  20933748.281 9
 09  6 30  0  4 30.0000000  0 10G22G 7G 3G 6G11G32G 8G16G18G19
  21631703.121 9 113675406.008 9  88578229.307 9  21631697.945 9  21631702.432 9
  24244022.743 7 127403215.821 7  99275232.654 6  24244021.379 6  24244023.341 6
  20110118.265 9 105679442.633 9  82347617.788 9  20110115.193 9  20110117.180 9
  20760902.174 9 109099352.821 9  85012494.225 9  20760899.259 9  20760901.278 9
  23349464.652 8 122702262.561 8  95612144.835 7  23349460.842 7  23349464.000 7
  24162618.294 7 126975418.171 7  98941876.747 6  24162615.902 6  24162617.686 6
  24932721.700 7 131022348.838 7 102095325.869 5  24932719.367 5  24932720.930 5
  22583736.896 9 118678370.755 9  92476654.884 8  22583733.184 8  22583736.130 8
  23798447.524 8 125061736.755 8  97450708.753 6  23798442.620 6  23798445.959 6
  20926967.113 9 109972001.678 9  85692467.541 9  20926961.569 9  20926965.549 9
 09  6 30  0  5  0.0000000  0 10G22G 7G 3G 6G11G32G 8G16G18G19
  21636965.929 9 113703061.409 9  88599778.970 9  21636960.669 9  21636965.101 9
  24251322.363 7 127441572.784 7  99305121.172 6  24251319.842 6  24251322.118 6
  20111692.075 9 105687712.910 9  82354062.162 9  20111689.083 9  20111690.890 9
  20764983.272 9 109120799.172 9  85029205.668 9  20764980.191 9  20764982.428 9
  23333792.010 8 122619901.189 8  95547967.191 7  23333788.405 7  23333791.211 7
  24141301.618 7 126863401.550 7  98854591.082 6  24141299.834 6  24141300.983 6
  24928258.080 7 130998887.082 7 102077043.967 5  24928255.702 5  24928256.132 5
  22602187.025 9 118775325.337 9  92552203.892 8  22602182.987 8  22602186.066 8
  23812231.106 8 125134170.640 8  97507150.729 6  23812226.294 6  23812229.642 6
  20920223.347 9 109936562.213 9  85664852.379 9  20920217.661 9  20920221.715 9
 09  6 30  0  5 30.0000000  0 10G22G 7G 3G 6G11G32G 8G16G18G19
  21642330.700 9 113731254.669 9  88621747.748 9  21642325.658 9  21642329.897 9
  24258699.481 7 127480340.822 7  99335330.033 6  24258697.069 6  24258699.966 6
  20113333.734 9 105696339.903 9  82360784.497 9  20113330.522 9  20113332.662 9
  20769119.276 9 109142533.692 9  85046141.656 9  20769116.349 9  20769118.421 9
  23318151.579 8 122537709.478 8  95483921.739 7  23318147.652 7  23318150.878 7
  24119994.566 7 126751432.498 7  98767342.492 6  24119992.883 6  24119993.813 6
  24923897.490 7 130975971.861 7 102059187.962 5  24923895.313 5  24923895.294 5
  22620685.585 8 118872537.197 8  92627953.398 8  22620681.778 8  22620684.755 8
  23826080.464 8 125206952.555 8  97563863.894 6  23826076.224 6  23826080.041 6
  20913517.906 9 109901327.030 9  85637396.403 9  20913512.490 9  20913516.889 9
 09  6 30  0  6  0.0000000  0 10G22G 7G 3G 6G11G32G 8G16G18G19
  21647798.019 9 113759984.608 9  88644134.721 9  21647792.420 9  21647797.067 9
  24266154.876 7 127519517.441 7  99365857.279 6  24266151.941 6  24266154.816 6
  20115043.403 9 105705324.545 9  82367785.519 9  20115040.378 9  20115042.358 9
  20773310.214 9 109164557.251 9  85063302.867 9  20773307.374 9  20773309.247 9
  23302542.970 8 122455688.046 8  95420008.943 7  23302538.968 7  23302542.761 7
  24098696.592 7 126639513.747 7  98680133.108 5  24098695.236 5  24098696.689 5
  24919640.950 7 130953603.386 7 102041757.992 5  24919637.326 5  24919639.466 5
  22639232.680 8 118970003.775 8  92703901.374 8  22639228.984 8  22639231.677 8
  23839996.411 8 125280080.532 8  97620846.741 6  23839992.401 6  23839995.624 6
  20906852.202 9 109866296.904 9  85610100.209 9  20906846.470 9  20906850.515 9
 09  6 30  0  6 30.0000000  0 10G22G 7G 3G 6G11G32G 8G16G18G19
  21653366.863 9 113789250.059 9  88666938.967 9  21653361.569 9  21653366.132 9
  24273687.070 7 127559100.289 7  99396701.039 6  24273683.397 6  24273686.699 6
  20116821.097 9 105714667.267 9  82375065.559 9  20116818.054 9  20116820.207 9
  20777556.495 9 109186870.198 9  85080689.569 9  20777553.249 9  20777555.436 9
  23286966.998 8 122373837.047 8  95356228.981 6  23286962.305 6  23286966.399 6
  24077409.767 6 126527647.955 6  98592964.980 5  24077407.288 5  24077408.537 5
  24915488.666 7 130931782.481 7 102024754.667 5  24915486.089 5  24915488.111 5
  22657827.707 8 119067722.661 8  92780045.934 8  22657824.125 8  22657826.938 8
  23853977.890 8 125353552.293 8  97678097.461 6  23853973.166 6  23853976.629 6
  20900225.156 9 109831473.209 9  85582964.870 9  20900219.764 9  20900223.817 9
 09  6 30  0  7  0.0000000  0 10G22G 7G 3G 6G11G32G 8G16G18G19
  21659037.632 9 113819050.305 9  88690159.944 9  21659032.677 9  21659037.014 9
  24281296.678 7 127599087.169 7  99427859.641 6  24281292.124 6  24281296.208 6
  20118667.092 9 105724368.421 9  82382624.892 9  20118664.090 9  20118666.347 9
  20781857.433 9 109209473.208 9  85098302.300 9  20781854.273 9  20781856.578 9
  23271423.444 8 122292157.011 8  95292582.272 6  23271419.067 6  23271422.951 6
  24056133.327 7 126415837.969 7  98505840.365 5  24056130.103 5  24056133.296 5
  24911440.436 7 130910509.356 7 102008178.204 5  24911437.685 5  24911440.465 5
  22676471.295 8 119165692.084 8  92856385.722 8  22676467.439 8  22676469.960 8
  23868024.431 8 125427365.762 8  97735614.468 6  23868019.304 6  23868022.988 6
  20893638.183 9 109796856.859 9  85555991.094 9  20893632.865 9  20893636.709 9
 09  6 30  0  7 30.0000000  0 10G22G 7G 3G 6G11G32G 8G16G18G19
  21664810.239 9 113849384.489 9  88713796.969 9  21664804.917 9  21664809.443 9
  24288982.530 7 127639475.632 7  99459331.155 6  24288977.362 6  24288982.320 6
  20120581.589 9 105734428.708 9  82390464.063 9  20120578.599 9  20120580.823 9
  20786213.911 9 109232366.920 9  85116141.560 9  20786210.878 9  20786213.017 9
  23255913.005 8 122210648.511 8  95229069.175 7  23255908.459 7  23255912.230 7
  24034866.729 7 126304086.496 7  98418761.324 5  24034864.590 5  24034867.249 5
  24907496.850 7 130889783.901 7 101992028.514 5  24907494.104 5  24907496.523 5
  22695161.219 8 119263909.278 8  92932918.589 8  22695157.808 8  22695160.132 8
  23882135.108 8 125501518.819 8  97793396.047 6  23882130.246 6  23882133.962 6
  20887090.383 9 109762448.436 9  85529179.336 9  20887084.981 9  20887089.049 9
 09  6 30  0  8  0.0000000  0 10G22G 7G 3G 6G11G32G 8G16G18G19
  21670683.898 9 113880251.337 9  88737849.058 9  21670678.657 9  21670683.167 9
  24296743.869 7 127680263.264 7  99491113.731 6  24296739.443 6  24296743.602 6
  20122564.474 9 105744848.566 9  82398583.424 9  20122561.543 9  20122563.718 9
  20790625.855 9 109255551.972 9  85134207.828 9  20790622.840 9  20790625.228 9
  23240435.464 8 122129312.045 8  95165690.110 7  23240430.940 7  23240434.331 7
  24013614.256 7 126192396.247 7  98331729.968 5  24013610.195 5  24013613.205 5
  24903656.912 7 130869606.455 7 101976305.812 5  24903654.528 5  24903656.956 5
  22713898.298 8 119362372.086 8  93009642.845 8  22713894.563 8  22713897.265 8
  23896309.761 8 125576009.181 8  97851440.460 6  23896305.782 6  23896308.650 6
  20880582.525 9 109728249.000 9  85502530.423 9  20880577.013 9  20880581.091 9
 09  6 30  0  8 30.0000000  0 10G22G 7G 3G 6G11G32G 8G16G18G19
  21676658.861 9 113911649.719 9  88762315.334 9  21676653.706 9  21676658.116 9
  24304581.118 7 127721447.771 7  99523205.543 6  24304577.026 6  24304580.990 6
  20124615.879 9 105755628.656 9  82406983.482 9  20124613.016 9  20124614.976 9
  20795093.383 9 109279028.707 9  85152501.372 9  20795090.370 9  20795092.424 9
  23224990.322 8 122048147.763 8  95102445.228 7  23224985.998 7  23224988.596 7
  23992371.832 7 126080769.864 7  98244748.311 6  23992369.274 6  23992372.125 6
  24899921.323 7 130849977.079 7 101961010.247 5  24899919.260 5  24899920.502 5
  22732681.330 9 119461078.063 9  93086556.569 8  22732677.442 8  22732680.476 8
  23910548.646 8 125650834.727 8  97909746.076 6  23910544.883 6  23910547.220 6
  20874114.520 9 109694259.715 9  85476045.268 9  20874108.793 9  20874113.172 9
 09  6 30  0  9  0.0000000  0 10G22G 7G 3G 6G11G32G 8G16G18G19
  21682734.626 9 113943578.468 9  88787194.884 9  21682729.377 9  21682733.628 9
  24312493.014 7 127763026.573 7  99555604.585 6  24312489.285 6  24312493.165 6
  20126735.901 9 105766769.307 9  82415664.497 9  20126733.039 9  20126735.023 9
  20799616.503 9 109302797.718 9  85171022.672 9  20799613.488 9  20799615.627 9
  23209578.300 8 121967156.515 8  95039335.197 7  23209574.216 7  23209576.752 7
  23971143.976 7 125969210.064 7  98157818.622 5  23971140.119 5  23971141.796 5
  24896291.344 7 130830896.188 7 101946142.029 5  24896287.736 5  24896289.934 5
  22751510.337 8 119560024.852 8  93163657.933 8  22751505.942 8  22751509.331 8
  23924850.432 8 125725993.479 8  97968311.353 6  23924846.253 6  23924849.490 6
  20867686.784 9 109660481.203 9  85449724.338 9  20867681.018 9  20867685.226 9
 09  6 30  0  9 30.0000000  0 10G22G 7G 3G 6G11G32G 8G16G18G19
  21688911.217 9 113976036.690 9  88812487.012 9  21688906.040 9  21688910.194 9
  24320479.867 7 127804997.430 7  99588309.134 6  24320476.627 6  24320479.138 6
  20128924.754 9 105778271.570 9  82424627.287 9  20128921.802 9  20128923.741 9
  20804195.402 9 109326859.763 9  85189772.317 9  20804192.535 9  20804194.549 9
  23194199.035 8 121886338.189 8  94976359.874 7  23194195.353 7  23194198.090 7
  23949926.875 7 125857719.594 7  98070942.953 5  23949923.878 5  23949926.455 5
  24892764.294 7 130812363.809 7 101931701.223 5  24892760.879 5  24892763.689 5
  22770384.341 8 119659209.982 8  93240945.023 8  22770380.438 8  22770383.583 8
  23939216.156 8 125801483.050 8  98027134.399 6  23939211.351 6  23939214.779 6
  20861299.254 9 109626914.867 9  85423568.746 9  20861293.632 9  20861297.870 9
 09  6 30  0 10  0.0000000  0 10G22G 7G 3G 6G11G32G 8G16G18G19
  21695188.238 9 114009023.002 9  88838190.638 9  21695183.103 9  21695187.406 9
  24328540.349 7 127847357.687 7  99621317.141 6  24328538.755 6  24328539.975 6
  20131182.408 9 105790135.884 9  82433872.198 9  20131179.524 9  20131181.407 9
  20808830.049 9 109351215.281 9  85208750.631 9  20808827.137 9  20808829.209 9
  23178852.558 8 121805693.620 8  94913519.990 7  23178849.895 7  23178852.273 7
  23928724.915 7 125746301.177 7  97984123.398 6  23928721.682 6  23928724.106 6
  24889341.741 7 130794380.056 7 101917687.905 5  24889339.760 5  24889341.292 5
  22789303.923 8 119758631.329 8  93318416.175 8  22789299.816 8  22789302.602 8
  23953643.882 8 125877301.282 8  98086213.546 6  23953639.263 6  23953642.530 6
  20854952.358 9 109593561.556 9  85397579.143 9  20854946.711 9  20854951.026 9
 09  6 30  0 10 30.0000000  0 10G22G 7G 3G 6G11G32G 8G16G18G19
  21701565.614 9 114042536.171 9  88864304.806 9  21701560.514 9  21701565.018 9
  24336675.089 7 127890105.106 7  99654626.817 6  24336672.324 6  24336675.468 6
  20133509.178 9 105802362.570 9  82443399.481 9  20133506.195 9  20133508.142 9
  20813520.586 9 109375864.792 9  85227958.035 9  20813517.732 9  20813519.835 9
  23163539.235 8 121725223.059 8  94850815.698 7  23163536.720 7  23163539.135 7
  23907537.637 7 125634957.553 7  97897362.175 5  23907534.569 5  23907536.238 5
  24886023.896 7 130776944.691 7 101904101.915 5  24886021.832 5  24886022.998 5
  22808267.668 8 119858286.378 8  93396069.436 8  22808263.404 8  22808266.587 8
  23968133.789 8 125953445.703 8  98145546.856 6  23968129.303 6  23968132.484 6
  20848646.200 9 109560421.857 9  85371755.997 9  20848640.552 9  20848644.812 9
 09  6 30  0 11  0.0000000  0 10G22G 7G 3G 6G11G32G 8G16G18G19
  21708043.226 9 114076575.045 9  88890828.606 9  21708037.346 9  21708042.470 9
  24344883.446 7 127933237.111 7  99688236.148 6  24344879.624 6  24344883.061 6
  20135904.806 9 105814952.443 9  82453209.771 9  20135901.957 9  20135903.988 9
  20818267.345 9 109400808.894 9  85247394.990 9  20818264.423 9  20818266.530 9
  23148260.406 8 121644926.955 8  94788247.332 7  23148256.604 7  23148259.441 7
  23886363.708 7 125523691.426 7  97810661.280 5  23886361.065 5  23886363.196 5
  24882809.947 7 130760058.266 7 101890943.677 5  24882808.324 5  24882810.301 5
  22827275.174 8 119958172.776 8  93473902.953 8  22827271.367 8  22827274.597 8
  23982685.339 8 126029914.591 8  98205133.007 6  23982680.831 6  23982684.030 6
  20842380.646 9 109527497.161 9  85346100.387 9  20842375.064 9  20842379.318 9
 09  6 30  0 11 30.0000000  0 10G22G 7G 3G 6G11G32G 8G16G18G19
  21714620.349 9 114111138.427 9  88917761.124 9  21714614.984 9  21714619.656 9
  24353162.969 7 127976751.353 7  99722143.375 6  24353160.647 6  24353163.688 6
  20138369.796 9 105827905.760 9  82463303.264 9  20138366.566 9  20138368.869 9
  20823070.387 9 109426048.159 9  85267061.946 9  20823067.554 9  20823069.350 9
  23133013.460 8 121564805.667 8  94725815.156 7  23133009.379 7  23133013.342 7
  23865206.141 7 125412505.488 7  97724022.870 5  23865203.288 5  23865205.211 5
  24879701.181 7 130743720.546 7 101878213.047 5  24879699.665 5  24879701.850 5
  22846326.774 8 120058288.151 8  93551914.904 8  22846322.681 8  22846325.697 8
  23997297.724 8 126106705.735 8  98264970.265 6  23997293.755 6  23997297.160 6
  20836156.331 9 109494788.409 9  85320613.050 9  20836151.054 9  20836154.964 9
 09  6 30  0 12  0.0000000  0 10G22G 7G 3G 6G11G32G 8G16G18G19
  21721297.145 9 114146225.091 9  88945101.391 9  21721291.468 9  21721296.378 9
  24361516.767 7 128020645.149 7  99756346.328 6  24361512.860 6  24361516.418 6
  20140903.915 9 105841223.270 9  82473680.544 9  20140901.016 9  20140903.202 9
  20827929.458 9 109451583.039 9  85286959.256 9  20827926.309 9  20827928.452 9
  23117800.417 8 121484859.750 8  94663519.630 7  23117796.441 7  23117800.044 7
  23844063.853 7 125301402.574 7  97637449.138 6  23844061.190 6  23844062.067 6
  24876697.416 7 130727931.675 7 101865910.014 5  24876694.714 5  24876698.180 5
  22865421.301 8 120158629.723 8  93630103.104 8  22865417.425 8  22865420.004 8
  24011971.716 8 126183816.918 8  98325056.942 6  24011967.540 6  24011970.990 6
  20829973.342 9 109462296.361 9  85295294.578 9  20829967.855 9  20829971.933 9
 09  6 30  0 12 30.0000000  0 10G22G 7G 3G 6G11G32G 8G16G18G19
  21728073.094 9 114181833.558 9  88972848.259 9  21728067.863 9  21728072.489 9
  24369940.614 7 128064915.835 7  99790842.936 6  24369937.837 6  24369940.254 6
  20143507.738 9 105854905.482 9  82484342.003 9  20143504.730 9  20143506.723 9
  20832845.036 9 109477414.024 9  85307087.294 9  20832841.943 9  20832844.181 9
  23102620.892 8 121405089.581 8  94601361.058 7  23102616.399 7  23102620.462 7
  23822937.587 7 125190385.354 7  97550942.207 6  23822935.365 6  23822936.434 6
  24873796.489 7 130712691.833 7 101854034.796 5  24873795.221 5  24873797.746 5
  22884558.121 8 120259195.869 8  93708466.300 8  22884554.394 8  22884557.109 8
  24026706.104 8 126261245.758 8  98385391.111 6  24026701.541 6  24026705.478 6
  20823831.839 9 109430022.323 9  85270145.989 9  20823826.260 9  20823830.500 9
 09  6 30  0 13  0.0000000  0 10G22G 7G 3G 6G11G32G 8G16G18G19
  21734948.067 9 114217962.399 9  89001000.610 9  21734943.259 9  21734947.611 9
  24378436.473 7 128109561.111 7  99825631.431 6  24378432.397 6  24378435.934 6
  20146180.760 9 105868952.540 9  82495287.759 9  20146177.995 9  20146179.716 9
  20837816.830 9 109503541.837 9  85327446.624 9  20837813.952 9  20837816.029 9
  23087474.455 8 121325495.410 8  94539339.644 7  23087470.077 7  23087473.564 7
  23801828.549 7 125079456.589 7  97464504.166 6  23801825.831 6  23801827.028 6
  24871001.106 7 130698000.552 7 101842587.073 5  24870999.837 5  24871001.084 5
  22903737.529 8 120359983.788 8  93787002.306 8  22903733.612 8  22903736.368 8
  24041500.231 8 126338990.153 8  98445971.148 6  24041495.609 6  24041499.836 6
  20817732.056 9 109397967.023 9  85245167.842 9  20817726.452 9  20817730.621 9
 09  6 30  0 13 30.0000000  0 10G22G 7G 3G 6G11G32G 8G16G18G19
  21741922.338 9 114254610.567 9  89029557.624 9  21741916.791 9  21741921.324 9
  24387002.895 7 128154578.488 7  99860709.932 6  24386999.034 6  24387001.783 6
  20148923.415 9 105883365.259 9  82506518.448 9  20148920.501 9  20148922.411 9
  20842845.434 9 109529966.670 9  85348037.390 9  20842842.444 9  20842844.452 9
  23072361.510 8 121246077.917 8  94477455.885 7  23072357.443 7  23072360.824 7
  23780737.533 7 124968619.054 7  97378137.252 6  23780734.535 6  23780735.782 6
  24868310.687 7 130683857.795 7 101831566.732 5  24868308.204 5  24868309.037 5
  22922958.471 8 120460990.948 8  93865709.143 7  22922954.901 7  22922957.619 7
  24056354.228 8 126417047.713 8  98506795.235 6  24056349.647 6  24056353.489 6
  20811673.816 9 109366131.641 9  85220361.057 9  20811668.221 9  20811672.800 9
 09  6 30  0 14  0.0000000  0 10G22G 7G 3G 6G11G32G 8G16G18G19
  21748994.543 9 114291777.051 9  89058518.527 9  21748989.472 9  21748994.168 9
  24395640.109 7 128199965.319 7  99896076.305 6  24395635.987 6  24395638.145 6
  20151735.718 9 105898143.917 9  82518034.281 9  20151732.738 9  20151734.807 9
  20847930.622 9 109556689.423 9  85368860.298 9  20847927.635 9  20847929.675 9
  23057282.749 8 121166837.072 8  94415709.780 7  23057278.010 7  23057281.759 7
  23759663.230 7 124857875.446 7  97291843.507 6  23759661.185 6  23759662.368 6
  24865722.700 7 130670263.722 7 101820973.977 5  24865721.025 5  24865721.419 5
  22942220.926 8 120562215.316 8  93944585.247 7  22942217.245 7  22942220.216 7
  24071266.878 8 126495416.338 8  98567861.698 6  24071262.686 6  24071267.294 6
  20805657.792 9 109334517.005 9  85195726.276 9  20805652.231 9  20805656.457 9
 09  6 30  0 14 30.0000000  0 10G22G 7G 3G 6G11G32G 8G16G18G19
  21756165.590 9 114329460.253 9  89087882.060 9  21756160.150 9  21756164.743 9
  24404345.245 7 128245719.213 7  99931728.704 6  24404342.888 6  24404344.827 6
  20154617.828 9 105913289.176 9  82529835.780 9  20154614.772 9  20154616.943 9
  20853072.553 9 109583710.366 9  85389915.560 9  20853069.547 9  20853071.491 9
  23042237.816 8 121087773.536 8  94354101.833 7  23042232.743 7  23042236.637 7
  23738608.088 7 124747228.518 7  97205625.111 6  23738605.678 6  23738606.724 6
  24863240.045 7 130657218.299 7 101810808.699 5  24863238.763 5  24863239.345 5
  22961524.206 8 120663654.223 8  94023628.559 7  22961520.361 7  22961523.610 7
  24086239.104 8 126574093.815 8  98629168.841 6  24086234.600 6  24086238.340 6
  20799684.056 9 109303124.437 9  85171264.520 9  20799678.174 9  20799682.457 9
 09  6 30  0 15  0.0000000  0 10G22G 7G 3G 6G11G32G 8G16G18G19
  21763434.357 9 114367658.816 9  89117647.177 9  21763429.076 9  21763433.541 9
  24413122.001 7 128291837.383 7  99967664.930 6  24413118.562 6  24413121.573 6
  20157569.607 9 105928801.570 9  82541923.359 9  20157566.732 9  20157568.906 9
  20858271.276 9 109611030.260 9  85411203.783 9  20858268.435 9  20858270.322 9
  23027226.223 8 121008887.859 8  94292632.462 7  23027221.556 7  23027225.122 7
  23717571.427 7 124636680.973 7  97119484.148 6  23717569.166 6  23717570.287 6
  24860862.834 7 130644721.245 7 101801070.730 5  24860859.541 5  24860861.171 5
  22980867.979 8 120765305.490 8  94102837.347 7  22980863.416 7  22980867.210 7
  24101269.238 7 126653077.926 7  98690714.902 6  24101263.900 6  24101268.046 6
  20793752.447 9 109271954.589 9  85146976.313 9  20793746.707 9  20793751.012 9
 09  6 30  0 15 30.0000000  0 10G22G 7G 3G 6G11G32G 8G16G18G19
  21770801.065 9 114406371.527 9  89147812.934 9  21770795.816 9  21770800.219 9
  24421967.252 7 128338317.498 7 100003883.176 6  24421963.462 6  24421967.188 6
  20160591.654 9 105944681.426 9  82554297.268 9  20160588.365 9  20160590.530 9
  20863526.888 9 109638649.300 9  85432725.106 9  20863524.167 9  20863526.107 9
  23012248.502 8 120930180.115 8  94231301.766 7  23012244.844 7  23012247.594 7
  23696554.289 7 124526235.606 7  97033422.827 6  23696552.423 6  23696553.252 6
  24858588.273 7 130632772.290 7 101791759.882 5  24858585.528 5  24858588.000 5
  23000251.454 8 120867166.660 8  94182209.702 7  23000246.759 7  23000250.326 7
  24116357.416 7 126732366.351 7  98752498.104 6  24116352.080 6  24116355.854 6
  20787863.655 9 109241008.416 9  85122862.407 9  20787858.073 9  20787862.201 9
 09  6 30  0 16  0.0000000  0 10G22G 7G 3G 6G11G32G 8G16G18G19
  21778265.482 9 114445596.837 9  89178378.116 9  21778259.988 9  21778264.679 9
  24430881.348 7 128385156.599 7 100040381.191 6  24430876.833 6  24430879.957 6
  20163683.389 9 105960929.004 9  82566957.714 9  20163680.451 9  20163682.313 9
  20868839.783 9 109666568.176 9  85454480.067 9  20868836.839 9  20868839.083 9
  22997304.593 8 120851650.850 8  94170110.165 7  22997301.439 7  22997304.276 7
  23675557.300 7 124415895.088 7  96947443.197 6  23675554.740 6  23675555.272 6
  24856419.528 7 130621371.429 7 101782876.095 5  24856416.788 5  24856418.891 5
  23019674.155 8 120969235.103 8  94261743.558 7  23019669.986 7  23019673.028 7
  24131502.823 7 126811957.014 7  98814516.807 6  24131497.034 6  24131502.195 6
  20782017.593 9 109210287.268 9  85098923.851 9  20782012.066 9  20782016.232 9
 09  6 30  0 16 30.0000000  0 10G22G 7G 3G 6G11G32G 8G16G18G19
  21785826.765 9 114485332.872 9  89209341.263 9  21785821.843 9  21785826.032 9
  24439862.085 7 128432352.167 7 100077156.965 6  24439857.805 6  24439861.304 6
  20166845.249 9 105977545.049 9  82579905.282 9  20166842.484 9  20166844.353 9
  20874209.823 9 109694787.405 9  85476469.078 9  20874206.836 9  20874208.827 9
  22982395.131 8 120773300.252 8  94109057.751 7  22982391.626 7  22982394.941 7
  23654580.532 7 124305662.209 7  96861547.448 6  23654578.270 6  23654578.668 6
  24854353.597 7 130610518.319 7 101774419.129 5  24854352.420 5  24854352.898 5
  23039136.207 8 121071508.675 8  94341437.244 7  23039132.400 7  23039134.788 7
  24146705.959 8 126891847.805 8  98876769.412 5  24146700.792 5  24146704.104 5
  20776214.708 9 109179792.246 9  85075161.504 9  20776208.995 9  20776213.280 9
 09  6 30  0 17  0.0000000  0 10G22G 7G 3G 6G11G32G 8G16G18G19
  21793485.491 9 114525578.852 9  89240701.771 9  21793480.172 9  21793484.647 9
  24448909.831 7 128479901.759 7 100114208.587 6  24448906.169 6  24448909.414 6
  20170077.454 9 105994530.097 9  82593140.385 9  20170074.385 9  20170076.428 9
  20879636.788 9 109723307.399 9  85498692.457 9  20879633.820 9  20879635.995 9
  22967519.073 8 120695129.036 8  94048145.121 7  22967516.060 7  22967519.327 7
  23633625.275 7 124195539.758 7  96775737.758 6  23633622.430 6  23633622.597 6
  24852392.366 7 130600212.504 7 101766388.654 5  24852391.483 5  24852391.092 5
  23058636.776 8 121173984.858 8  94421288.815 7  23058633.677 7  23058635.618 7
  24161964.957 7 126972036.337 7  98939253.986 6  24161960.283 6  24161964.011 6
  20770454.750 9 109149524.168 9  85051575.990 9  20770448.991 9  20770453.471 9
 09  6 30  0 17 30.0000000  0 11G22G 7G 3G 6G11G32G 8G16G14G18G19
  21801240.760 9 114566333.092 9  89272458.329 9  21801235.573 9  21801239.919 9
  24458025.285 7 128527802.743 7 100151534.024 6  24458021.026 6  24458024.433 6
  20173379.783 9 106011884.503 9  82606663.297 9  20173376.947 9  20173378.880 9
  20885121.258 9 109752128.728 9  85521150.640 9  20885118.237 9  20885120.369 9
  22952678.054 8 120617137.464 8  93987372.477 7  22952674.442 7  22952677.512 7
  23612690.128 7 124085530.419 7  96690016.203 6  23612688.320 6  23612688.884 6
  24850535.413 7 130590453.735 7 101758784.444 5  24850534.765 5  24850534.300 5
  23078175.150 8 121276660.917 8  94501296.110 7  23078172.112 7  23078174.121 7
  25118272.831 6
  24177280.469 7 127052520.156 7  99001968.674 6  24177276.604 6  24177279.786 6
  20764738.548 9 109119483.770 9  85028167.882 9  20764732.818 9  20764736.919 9
 09  6 30  0 18  0.0000000  0 11G22G 7G 3G 6G11G32G 8G16G14G18G19
  21809092.470 9 114607594.133 9  89304609.799 9  21809087.221 9  21809091.650 9
  24467206.057 7 128576052.607 7 100189131.331 5  24467203.977 5  24467205.885 5
  20176752.712 9 106029608.638 9  82620474.316 9  20176749.663 9  20176751.555 9
  20890663.297 9 109781251.690 9  85543843.854 9  20890660.444 9  20890662.306 9
  22937871.104 8 120539325.797 8  93926740.020 7  22937866.987 7  22937870.383 7
  23591779.169 7 123975636.997 7  96604384.921 6  23591776.527 6  23591777.216 6
  24848783.082 7 130581241.784 7 101751606.319 5  24848781.865 5  24848780.374 5
  23097751.153 8 121379534.412 8  94581457.257 7  23097747.970 7  23097750.634 7
  25104731.716 6 131926256.04716
  24192651.265 7 127133297.307 7  99064911.896 5  24192647.757 5  24192651.021 5
  20759065.583 9 109089672.461 9  85004938.285 9  20759059.813 9  20759064.196 9
 09  6 30  0 18 30.0000000  0 11G22G 7G 3G 6G11G32G 8G16G14G18G19
  21817040.269 9 114649360.618 9  89337155.116 9  21817035.348 9  21817039.333 9
  24476454.120 7 128624648.443 7 100226998.213 6  24476451.364 6  24476452.835 6
  20180195.796 9 106047703.010 9  82634573.825 9  20180192.825 9  20180194.893 9
  20896262.756 9 109810676.924 9  85566772.602 9  20896259.633 9  20896261.766 9
  22923098.635 8 120461694.494 8  93866248.094 7  22923094.332 7  22923097.743 7
  23570889.570 7 123865862.159 7  96518846.065 6  23570887.350 6  23570888.255 6
  24847134.198 7 130572576.658 7 101744854.255 5  24847132.296 5  24847132.010 5
  23117364.601 8 121482603.585 8  94661770.912 7  23117361.473 7  23117363.761 7
  25091209.340 6 131855192.356 6
  24208079.081 7 127214365.054 7  99128081.555 5  24208074.208 5  24208077.270 5
  20753436.371 9 109060091.220 9  84981887.962 9  20753430.772 9  20753435.179 9
 09  6 30  0 19  0.0000000  0 11G22G 7G 3G 6G11G32G 8G16G14G18G19
  21825083.937 9 114691631.008 9  89370093.089 9  21825079.291 9  21825083.399 9
  24485766.797 7 128673587.346 7 100265132.434 6  24485764.114 6  24485766.255 6
  20183709.663 9 106066168.126 9  82648962.225 9  20183706.555 9  20183708.627 9
  20901919.895 9 109840404.885 9  85589937.242 9  20901917.018 9  20901918.951 9
  22908359.857 8 120384243.948 8  93805897.015 7  22908355.828 7  22908359.527 7
  23550023.637 7 123756208.695 7  96433401.828 6  23550020.501 6  23550021.619 6
  24845588.282 6 130564457.809 6 101738527.889 5  24845586.622 5  24845586.902 5
  23137015.161 8 121585865.584 8  94742234.809 7  23137011.393 7  23137014.282 7
  25077704.569 6 131784226.727 6
  24223560.593 7 127295721.492 7  99191476.226 5  24223556.645 5  24223558.505 5
  20747851.163 9 109030741.043 9  84959017.685 9  20747845.699 9  20747849.836 9
 09  6 30  0 19 30.0000000  0 11G22G 7G 3G 6G11G32G 8G16G14G18G19
  21833223.611 9 114734403.606 9  89403422.393 9  21833218.432 9  21833222.804 9
  24495145.246 7 128722867.104 7 100303532.262 6  24495141.880 6  24495144.279 6
  20187294.136 9 106085004.373 9  82663639.811 9  20187291.001 9  20187293.150 9
  20907634.642 9 109870436.035 9  85613338.134 9  20907631.698 9  20907633.767 9
  22893656.293 8 120306974.392 8  93745686.950 7  22893651.575 7  22893655.403 7
  23529180.242 7 123646679.369 7  96348054.264 6  23529176.941 6  23529179.050 6
  24844148.869 7 130556885.123 7 101732627.100 5  24844145.316 5  24844146.037 5
  23156701.399 8 121689317.729 8  94822846.879 7  23156697.718 7  23156700.547 7
  25064218.905 6 131713361.855 6
  24239096.481 8 127377364.262 8  99255093.982 6  24239092.789 6  24239094.254 6
  20742310.298 9 109001623.013 9  84936328.298 9  20742304.558 9  20742309.029 9
 09  6 30  0 20  0.0000000  0 11G22G 7G 3G 6G11G32G 8G16G14G18G19
  21841458.177 9 114777676.993 9  89437141.921 9  21841452.938 9  21841457.366 9
  24504586.780 7 128772484.835 7 100342195.439 6  24504583.620 6  24504586.814 6
  20190949.252 9 106104211.863 9  82678606.679 9  20190946.388 9  20190948.148 9
  20913407.261 9 109900770.746 9  85636975.562 9  20913404.247 9  20913406.272 9
  22878986.642 8 120229886.258 8  93685618.259 7  22878982.619 7  22878985.978 7
  23508361.670 8 123537276.820 8  96262805.453 6  23508357.978 6  23508360.438 6
  24842810.564 7 130549857.915 7 101727151.303 5  24842807.978 5  24842809.587 5
  23176423.256 8 121792957.924 8  94903605.482 7  23176420.000 7  23176422.543 7
  25050753.200 6 131642600.768 6
  24254686.668 8 127459291.268 8  99318933.191 6  24254682.776 6  24254685.319 6
  20736813.600 9 108972738.116 9  84913820.575 9  20736807.815 9  20736812.209 9
 09  6 30  0 20 30.0000000  0 11G22G 7G 3G 6G11G32G 8G16G14G18G19
  21849787.973 9 114821449.733 9  89471250.554 9  21849782.549 9  21849787.236 9
  24514092.440 7 128822437.945 7 100381119.941 6  24514090.327 6  24514092.276 6
  20194674.908 9 106123791.096 9  82693863.222 9  20194672.137 9  20194673.969 9
  20919237.415 9 109931409.588 9  85660849.972 9  20919234.510 9  20919236.706 9
  22864351.943 8 120152980.047 8  93625691.346 7  22864348.079 7  22864351.101 7
  23487567.839 7 123428003.928 7  96177657.711 6  23487564.614 6  23487566.425 6
  24841577.110 7 130543375.759 7 101722100.302 5  24841575.125 5  24841576.796 5
  23196180.800 8 121896783.472 8  94984508.517 7  23196177.299 7  23196179.687 7
  25037308.189 6 131571946.494 6
  24270330.616 8 127541500.144 8  99382992.058 6  24270326.582 6  24270329.472 6
  20731361.614 9 108944087.540 9  84891495.445 9  20731355.896 9  20731360.085 9
 09  6 30  0 21  0.0000000  0 11G22G 7G 3G 6G11G32G 8G16G14G18G19
  21858212.393 9 114865720.141 9  89505746.984 9  21858206.733 9  21858211.719 9
  24523661.570 7 128872723.686 7 100420303.601 6  24523658.412 6  24523661.208 6
  20198471.584 9 106143742.793 9  82709409.994 9  20198468.644 9  20198470.696 9
  20925125.779 9 109962352.993 9  85684961.710 9  20925122.827 9  20925124.903 9
  22849751.842 8 120076255.873 8  93565906.287 7  22849748.484 7  22849751.087 7
  23466799.149 8 123318863.404 8  96092613.134 6  23466796.342 6  23466797.823 6
  24840446.678 7 130537438.231 7 101717473.614 5  24840444.889 5  24840446.053 5
  23215972.566 8 122000792.240 8  95065554.303 7  23215969.125 7  23215971.978 7
  25023885.030 6 131501402.181 6
  24286027.449 8 127623988.594 8  99447268.727 6  24286023.841 6  24286026.764 6
  20725954.148 9 108915672.158 9  84869353.590 9  20725948.827 9  20725952.928 9
 09  6 30  0 21 30.0000000  0 11G22G 7G 3G 6G11G32G 8G16G14G18G19
  21866731.122 9 114910486.482 9  89540629.855 9  21866725.685 9  21866730.529 9
  24533293.202 7 128923339.316 7 100459744.361 6  24533290.252 6  24533293.196 6
  20202339.172 9 106164067.260 9  82725247.240 9  20202336.356 9  20202338.175 9
  20931072.199 9 109993601.469 9  85709311.162 9  20931069.347 9  20931071.126 9
  22835186.526 8 119999714.382 8  93506263.587 7  22835183.079 7  22835185.546 7
  23446056.416 8 123209858.022 8  96007673.864 6  23446053.228 6  23446055.118 6
  24839419.931 7 130532044.911 7 101713271.012 5  24839418.554 5  24839418.591 5
  23235799.787 8 122104981.769 8  95146740.945 7  23235795.852 7  23235798.650 7
  25010482.410 7 131430970.891 7
  24301777.280 8 127706754.538 8  99511761.703 6  24301773.996 6  24301775.954 6
  20720591.836 9 108887493.107 9  84847395.890 9  20720586.301 9  20720590.624 9
 09  6 30  0 22  0.0000000  0 11G22G 7G 3G 6G11G32G 8G16G14G18G19
  21875343.975 9 114955747.318 9  89575898.050 9  21875338.524 9  21875343.482 9
  24542986.260 7 128974282.291 7 100499440.189 6  24542984.450 6  24542987.874 6
  20206277.892 9 106184764.825 9  82741375.215 9  20206274.932 9  20206276.951 9
  20937076.619 9 110025155.181 9  85733898.463 9  20937073.560 9  20937075.680 9
  22820655.999 8 119923355.848 8  93446763.451 8  22820652.674 8  22820654.741 8
  23425339.547 8 123100990.505 8  95922841.997 6  23425336.355 6  23425337.641 6
  24838497.305 7 130527195.349 7 101709492.167 6  24838495.834 6  24838496.387 6
  23255659.845 8 122209349.352 8  95228066.359 7  23255656.391 7  23255659.013 7
  24997102.634 7 131360655.543 7
  24317579.531 7 127789795.394 7  99576468.945 6  24317576.095 6  24317578.304 6
  20715274.704 9 108859551.491 9  84825623.198 9  20715269.278 9  20715273.501 9
 09  6 30  0 22 30.0000000  0 11G22G 7G 3G 6G11G32G 8G16G14G18G19
  21884050.644 9 115001501.178 9  89611550.416 9  21884045.013 9  21884050.004 9
  24552744.259 7 129025549.696 7 100539388.817 6  24552740.153 6  24552743.224 6
  20210287.557 9 106205835.846 9  82757794.184 9  20210284.671 9  20210286.630 9
  20943139.361 9 110057014.818 9  85758724.140 9  20943136.394 9  20943138.632 9
  22806160.455 8 119847180.360 8  93387405.927 7  22806156.707 7  22806159.159 7
  23404649.146 7 122992263.600 7  95838119.730 6  23404647.180 6  23404648.558 6
  24837678.646 7 130522888.642 7 101706136.332 6  24837676.807 6  24837676.415 6
  23275554.193 8 122313892.682 8  95309528.708 7  23275549.814 7  23275553.030 7
  24983744.040 7 131290459.415 7 102304236.06415  24983739.998 5  24983744.786 5
  24333433.025 7 127873109.006 7  99641388.607 5  24333429.585 5  24333431.863 5
  20710003.372 9 108831848.423 9  84804036.384 9  20709997.706 9  20710001.722 9
 09  6 30  0 23  0.0000000  0 11G22G 7G 3G 6G11G32G 8G16G14G18G19
  21892850.717 9 115047746.387 9  89647585.655 9  21892845.465 9  21892850.205 9
  24562559.442 7 129077138.753 7 100579588.092 6  24562556.720 6  24562559.465 6
  20214368.440 9 106227280.447 9  82774504.255 9  20214365.283 9  20214367.416 9
  20949260.424 9 110089180.688 9  85783788.445 9  20949257.427 9  20949259.617 9
  22791699.473 8 119771188.619 8  93328191.567 7  22791695.219 7  22791698.468 7
  23383986.860 7 122883680.112 7  95753509.221 6  23383983.702 6  23383985.320 6
  24836961.510 7 130519124.632 7 101703203.390 5  24836959.846 5  24836959.759 5
  23295480.667 8 122418608.959 8  95391125.807 7  23295476.482 7  23295479.952 7
  24970409.994 7 131220385.316 7 102249632.873 6  24970405.496 6  24970408.318 6
  24349338.552 7 127956693.157 7  99706519.113 6  24349335.306 6  24349337.258 6
  20704777.174 9 108804384.764 9  84782636.130 9  20704771.683 9  20704775.694 9
 09  6 30  0 23 30.0000000  0 11G22G 7G 3G 6G11G32G 8G16G14G18G19
  21901743.925 9 115094481.030 9  89684002.272 9  21901738.695 9  21901743.349 9
  24572438.155 7 129129046.750 7 100620035.877 6  24572434.988 6  24572437.605 6
  20218520.428 9 106249099.349 9  82791505.992 9  20218517.399 9  20218519.509 9
  20955439.695 9 110121653.364 9  85809091.817 9  20955436.953 9  20955438.803 9
  22777274.026 8 119695380.682 8  93269120.441 7  22777269.407 7  22777272.863 7
  23363351.285 8 122775242.707 8  95669012.577 6  23363349.008 6  23363350.436 6
  24836348.374 7 130515902.776 7 101700692.839 5  24836345.640 5  24836346.806 5
  23315440.307 8 122523496.125 8  95472856.069 7  23315436.236 7  23315439.587 7
  24957098.326 7 131150436.337 7 102195127.177 5  24957096.202 5  24957098.331 5
  24365295.541 7 128040545.448 7  99771858.586 6  24365291.833 6  24365293.042 6
  20699596.706 9 108777161.673 9  84761423.330 9  20699591.143 9  20699595.199 9
 09  6 30  0 24  0.0000000  0 11G22G 7G 3G 6G11G32G 8G16G14G18G19
  21910730.062 9 115141703.532 9  89720799.032 9  21910724.815 9  21910729.574 9
  24582375.804 7 129181270.936 7 100660730.029 6  24582372.558 6  24582375.575 6
  20222743.785 9 106271292.839 9  82808799.615 9  20222740.758 9  20222742.571 9
  20961677.481 9 110154433.101 9  85834634.462 9  20961674.677 9  20961676.630 9
  22762883.150 9 119619757.191 9  93210193.057 7  22762878.564 7  22762882.924 7
  23342744.872 8 122666954.129 8  95584631.886 6  23342742.088 6  23342743.794 6
  24835838.168 7 130513222.283 7 101698604.115 5  24835834.994 5  24835837.807 5
  23335431.512 8 122628551.564 8  95554717.449 7  23335427.904 7  23335430.736 7
  24943811.249 7 131080615.421 7 102140721.231 5  24943808.001 5  24943809.404 5
  24381302.232 7 128124663.613 7  99837405.234 6  24381298.471 6  24381300.548 6
  20694462.345 9 108750180.421 9  84740398.972 9  20694456.627 9  20694460.959 9
 09  6 30  0 24 30.0000000  0 11G22G 7G 3G 6G11G32G 8G16G14G18G19
  21919808.843 9 115189412.448 9  89757974.815 9  21919803.055 9  21919807.956 9
  24592373.434 7 129233808.994 7 100701668.792 5  24592369.534 5  24592373.621 5
  20227038.360 9 106293860.970 9  82826385.168 9  20227035.438 9  20227037.308 9
  20967973.888 9 110187520.410 9  85860416.769 9  20967970.796 9  20967972.832 9
  22748527.244 8 119544318.141 8  93151409.400 7  22748523.016 7  22748527.199 7
  23322167.476 7 122558817.135 7  95500369.315 6  23322164.366 6  23322165.630 6
  24835431.677 7 130511082.633 7 101696936.870 4  24835427.358 4  24835431.380 4
  23355454.503 8 122733772.970 8  95636708.150 7  23355450.825 7  23355453.734 7
  24930550.410 7 131010925.708 7 102086417.545 6  24930547.547 6  24930549.590 6
  24397359.110 7 128209045.479 7  99903157.338 6  24397355.501 6  24397358.435 6
  20689374.268 9 108723441.800 9  84719563.677 9  20689368.319 9  20689372.823 9
 09  6 30  0 25  0.0000000  0 11G22G 7G 3G 6G11G32G 8G16G14G18G19
  21928979.636 9 115237605.953 9  89795528.194 9  21928974.105 9  21928978.771 9
  24602430.712 7 129286657.458 7 100742849.396 6  24602425.829 6  24602429.835 6
  20231404.261 9 106316804.435 9  82844263.189 9  20231401.328 9  20231403.189 9
  20974328.685 9 110220915.583 9  85886438.977 9  20974325.848 9  20974327.930 9
  22734206.512 8 119469063.981 8  93092769.806 7  22734202.787 7  22734206.173 7
  23301618.511 8 122450834.435 8  95416226.980 7  23301615.934 7  23301617.028 7
  24835127.004 7 130509483.044 7 101695690.484 5  24835123.791 5  24835127.451 5
  23375508.964 8 122839157.820 8  95718826.195 7  23375505.224 7  23375508.115 7
  24917314.070 7 130941370.216 7 102032218.433 5  24917311.077 5  24917313.484 5
  24413466.959 7 128293688.840 7  99969113.212 6  24413461.684 6  24413466.300 6
  20684332.244 9 108696946.848 9  84698918.257 9  20684326.609 9  20684331.041 9
 09  6 30  0 25 30.0000000  0 11G22G 7G 3G 6G11G32G 8G16G14G18G19
  21938242.467 9 115286282.260 9  89833457.788 9  21938236.775 9  21938241.707 9
  24612545.386 7 129339813.595 7 100784269.768 5  24612541.219 5  24612544.703 5
  20235841.711 9 106340123.511 9  82862433.896 9  20235838.686 9  20235840.796 9
  20980742.310 9 110254619.136 9  85912701.477 9  20980739.301 9  20980741.293 9
  22719922.059 8 119393995.108 8  93034274.564 8  22719917.848 8  22719920.965 8
  23281100.168 8 122343008.898 8  95332207.095 7  23281097.222 7  23281098.618 7
  24834925.812 7 130508422.848 7 101694864.320 4  24834922.643 4  24834924.725 4
  23395593.240 8 122944703.046 8  95801069.190 7  23395589.265 7  23395592.685 7
  24904104.760 7 130871952.033 7 101978126.331 5  24904101.093 5  24904103.233 5
  24429623.239 7 128378591.114 7 100035270.822 5  24429618.360 5  24429623.289 5
  20679337.033 9 108670696.628 9  84678463.540 9  20679331.451 9  20679335.585 9
 09  6 30  0 26  0.0000000  0 11G22G 7G 3G 6G11G32G 8G16G14G18G19
  21947596.815 9 115335439.648 9  89871762.252 9  21947591.633 9  21947595.925 9
  24622719.367 7 129393274.939 7 100825927.982 5  24622714.906 5  24622718.687 5
  20240350.767 9 106363818.227 9  82880897.309 9  20240347.556 9  20240349.793 9
  20987214.421 9 110288631.364 9  85939204.508 9  20987211.675 9  20987213.661 9
  22705672.198 8 119319112.038 8  92975924.140 8  22705668.455 8  22705671.166 8
  23260611.478 8 122235343.115 8  95248311.689 7  23260609.529 7  23260610.379 7
  24834826.172 7 130507901.601 7 101694458.132 5  24834823.369 5  24834824.973 5
  23415707.753 8 123050407.230 8  95883436.037 7  23415704.008 7  23415707.301 7
  24890920.549 7 130802674.015 7 101924143.474 4  24890917.683 4  24890920.823 4
  24445828.487 7 128463750.007 7 100101628.384 5  24445823.669 5  24445828.029 5
  20674388.386 9 108644692.481 9  84658200.568 9  20674382.932 9  20674387.073 9
 09  6 30  0 26 30.0000000  0 11G22G 7G 3G 6G11G32G 8G16G14G18G19
  21957042.581 9 115385076.425 9  89910440.266 9  21957037.055 9  21957041.860 9
  24632950.589 7 129447038.420 7 100867821.619 5  24632946.079 5  24632949.954 5
  20244931.275 9 106387889.369 9  82899654.040 9  20244928.264 9  20244930.292 9
  20993745.726 9 110322952.731 9  85965948.424 9  20993742.964 9  20993744.969 9
  22691457.410 8 119244415.042 8  92917718.706 8  22691454.954 8  22691456.826 8
  23240154.708 8 122127839.899 8  95164543.010 7  23240152.852 7  23240152.970 7
  24834829.639 7 130507918.128 7 101694471.072 5  24834827.100 5  24834827.961 5
  23435852.256 8 123156267.400 8  95965924.451 7  23435848.437 7  23435851.562 7
  24877765.598 7 130733539.143 7 101870272.117 5  24877761.398 5  24877764.310 5
  24462082.181 7 128549163.605 7 100168184.446 6  24462078.223 6  24462082.028 6
  20669487.139 9 108618935.458 9  84638130.154 9  20669481.789 9  20669485.778 9
 09  6 30  0 27  0.0000000  0 11G22G 7G 3G 6G11G32G 8G16G14G18G19
  21966578.792 9 115435190.858 9  89949490.477 9  21966573.889 9  21966578.331 9
  24643237.710 7 129501101.353 7 100909948.577 6  24643233.973 6  24643238.511 6
  20249583.473 9 106412337.070 9  82918704.191 9  20249580.547 9  20249582.617 9
  21000335.805 9 110357583.618 9  85992933.519 9  21000332.988 9  21000334.997 9
  22677278.629 8 119169904.255 8  92859658.362 8  22677275.737 8  22677277.803 8
  23219728.711 8 122020501.987 8  95080903.102 6  23219726.173 6  23219727.597 6
  24834935.195 7 130508472.093 7 101694902.739 5  24834932.366 5  24834933.106 5
  23456026.511 8 123262280.459 8  96048531.980 7  23456022.054 7  23456024.758 7
  24864637.755 7 130664550.650 7 101816514.888 5  24864633.455 5  24864636.202 5
  24478384.545 8 128634829.340 8 100234936.935 6  24478379.620 6  24478383.388 6
  20664633.035 9 108593426.733 9  84618253.219 9  20664627.685 9  20664631.640 9
 09  6 30  0 27 30.0000000  0 11G22G 7G 3G 6G11G32G 8G16G14G18G19
  21976205.705 9 115485781.154 9  89988911.491 9  21976200.485 9  21976205.039 9
  24653582.137 7 129555460.885 7 100952306.638 6  24653578.773 6  24653582.392 6
  20254307.321 9 106437161.226 9  82938047.686 9  20254304.448 9  20254306.320 9
  21006984.850 9 110392524.317 9  86020160.036 9  21006981.948 9  21006983.933 9
  22663135.732 9 119095580.054 9  92801743.413 8  22663132.365 8  22663134.694 8
  23199335.010 8 121913332.162 8  94997394.161 7  23199332.387 7  23199334.595 7
  24835141.254 7 130509562.658 7 101695752.591 5  24835139.626 5  24835141.601 5
  23476228.627 8 123368444.457 8  96131257.122 7  23476224.947 7  23476227.298 7
  24851538.179 6 130595711.708 6 101762874.192 5  24851534.233 5  24851537.765 5
  24494733.135 8 128720744.820 8 100301884.092 6  24494729.443 6  24494732.747 6
  20659826.377 9 108568167.070 9  84598570.362 9  20659821.016 9  20659825.083 9
 09  6 30  0 28  0.0000000  0 11G22G 7G 3G 6G11G32G 8G16G14G18G19
  21985922.763 9 115536845.567 9  90028701.942 9  21985918.263 9  21985922.356 9
  24663982.680 7 129610114.430 7 100994893.815 6  24663979.446 6  24663981.900 6
  20259102.918 9 106462362.248 9  82957684.840 9  20259099.992 9  20259101.855 9
  21013692.890 9 110427775.192 9  86047628.252 9  21013689.843 9  21013692.008 9
  22649027.799 9 119021442.810 9  92743974.152 8  22649024.346 8  22649026.927 8
  23178973.970 8 121806333.115 8  94914018.286 7  23178970.900 7  23178973.323 7
  24835452.619 7 130511189.167 7 101697019.965 5  24835450.011 5  24835450.799 5
  23496459.392 8 123474757.617 8  96214098.493 7  23496455.476 7  23496457.968 7
  24838467.144 6 130527025.086 6 101709352.147 5  24838463.653 5  24838466.450 5
  24511129.580 8 128806907.808 8 100369024.145 6  24511125.181 6  24511127.916 6
  20655067.279 9 108543157.458 9  84579082.354 9  20655061.643 9  20655065.790 9
 09  6 30  0 28 30.0000000  0 11G22G 7G 3G 6G11G32G 8G16G14G18G19
  21995730.189 9 115588382.182 9  90068860.350 9  21995725.014 9  21995729.244 9
  24674437.777 7 129665058.936 7 101037707.724 6  24674435.230 6  24674437.184 6
  20263970.342 9 106487940.755 9  82977616.141 9  20263967.480 9  20263969.367 9
  21020459.952 9 110463336.670 9  86075338.491 9  21020456.874 9  21020458.947 9
  22634955.355 8 118947492.881 8  92686350.840 8  22634951.725 8  22634954.547 8
  23158645.739 8 121699507.567 8  94830777.625 6  23158642.444 6  23158644.943 6
  24835863.004 7 130513350.628 7 101698704.245 5  24835861.175 5  24835862.956 5
  23516717.869 8 123581216.867 8  96297053.735 6  23516714.030 6  23516716.672 6
  24825425.829 7 130458493.930 7 101655951.261 5  24825422.258 5  24825425.309 5
  24527572.441 7 128893316.195 7 100436355.364 6  24527567.850 6  24527571.821 6
  20650355.982 9 108518399.385 9  84559790.352 9  20650350.287 9  20650354.320 9
 09  6 30  0 29  0.0000000  0 11G22G 7G 3G 6G11G32G 8G16G14G18G19
  22005626.626 9 115640389.507 9  90109385.533 9  22005621.578 9  22005626.037 9
  24684948.645 7 129720291.682 7 101080746.220 5  24684945.674 5  24684947.472 5
  20268909.657 9 106513897.035 9  82997841.808 9  20268906.663 9  20268908.702 9
  21027286.110 9 110499209.104 9  86103291.030 9  21027283.430 9  21027285.424 9
  22620918.511 9 118873730.482 9  92628873.648 8  22620914.982 8  22620917.924 8
  23138350.572 8 121592858.201 8  94747674.239 6  23138347.842 6  23138349.931 6
  24836377.094 7 130516046.199 7 101700804.685 5  24836374.051 5  24836375.997 5
  23537003.696 8 123687819.599 8  96380120.764 6  23537000.073 6  23537002.196 6
  24812414.871 7 130390121.213 7 101602673.867 4  24812411.391 4  24812415.172 4
  24544061.243 7 128979967.478 7 100503875.783 5  24544056.640 5  24544061.169 5
  20645692.590 9 108493894.023 9  84540695.268 9  20645687.038 9  20645691.424 9
 09  6 30  0 29 30.0000000  0 11G22G 7G 3G 6G11G32G 8G16G14G18G19
  22015612.787 9 115692865.307 9  90150275.773 9  22015607.274 9  22015611.964 9
  24695513.496 7 129775809.659 7 101124006.966 6  24695510.179 6  24695512.187 6
  20273920.927 9 106540231.102 9  83018361.852 9  20273918.072 9  20273919.969 9
  21034171.918 9 110535392.820 9  86131486.127 9  21034168.652 9  21034171.157 9
  22606918.159 9 118800155.983 9  92571542.880 8  22606914.255 8  22606916.977 8
  23118090.557 8 121486387.804 8  94664710.314 7  23118087.116 7  23118089.455 7
  24836990.540 7 130519274.936 7 101703320.599 5  24836988.245 5  24836990.092 5
  23557316.557 8 123794563.355 8  96463297.674 6  23557312.591 6  23557315.570 6
  24799434.745 7 130321909.940 7 101549522.201 5  24799431.173 5  24799433.878 5
  24560597.154 7 129066859.540 7 100571583.851 6  24560592.498 6  24560596.162 6
  20641077.758 9 108469642.169 9  84521797.714 9  20641072.065 9  20641076.235 9
 09  6 30  0 30  0.0000000  0 11G22G 7G 3G 6G11G32G 8G16G14G18G19
  22025687.571 9 115745808.215 9  90191529.988 9  22025681.653 9  22025686.794 9
  24706131.759 7 129831609.985 7 101167487.758 6  24706128.704 6  24706130.966 6
  20279004.196 9 106566943.514 9  83039176.713 9  20279001.221 9  20279003.053 9
  21041116.670 9 110571888.080 9  86159923.993 9  21041113.590 9  21041115.767 9
  22592953.100 9 118726769.686 9  92514358.760 8  22592949.217 8  22592951.926 8
  23097864.650 8 121380099.121 8  94581887.938 7  23097861.230 7  23097863.194 7
  24837706.670 7 130523035.810 7 101706251.159 4  24837703.121 4  24837704.828 4
  23577655.545 8 123901445.979 8  96546582.800 6  23577652.088 6  23577654.652 6
  24786485.132 7 130253863.135 7 101496498.764 4  24786482.651 4  24786485.842 4
  24577177.293 7 129153989.710 7 100639477.507 5  24577173.251 5  24577176.376 5
  20636511.211 9 108445644.942 9  84503098.571 9  20636505.533 9  20636509.733 9
 09  6 30  0 30 30.0000000  0 11G22G 7G 3G 6G11G32G 8G16G14G18G19
  22035850.668 9 115799216.153 9  90233146.569 9  22035845.274 9  22035849.950 9
  24716803.637 7 129887689.873 7 101211186.380 6  24716799.391 6  24716802.951 6
  20284159.287 9 106594033.945 9  83060286.141 9  20284156.509 9  20284158.360 9
  21048120.786 9 110608695.305 9  86188604.950 9  21048117.778 9  21048119.892 9
  22579023.793 9 118653571.874 9  92457321.531 8  22579020.613 8  22579023.126 8
  23077673.448 8 121273994.825 8  94499209.301 7  23077670.820 7  23077672.278 7
  24838523.570 7 130527328.301 7 101709595.986 5  24838519.208 5  24838521.396 5
  23598020.535 8 124008464.650 8  96629973.925 7  23598016.913 7  23598020.000 7
  24773568.591 7 130185984.006 7 101443605.993 5  24773566.047 5  24773567.514 5
  24593801.879 7 129241355.852 7 100707554.993 6  24593797.974 6  24593801.035 6
  20631993.548 9 108421903.510 9  84484598.761 9  20631987.899 9  20631991.930 9
 09  6 30  0 31  0.0000000  0 11G22G 7G 3G 6G11G32G 8G16G14G18G19
  22046102.101 9 115853087.031 9  90275123.885 9  22046096.198 9  22046101.167 9
  24727527.604 7 129944046.480 7 101255100.646 6  24727524.012 6  24727527.797 6
  20289386.523 9 106621503.117 9  83081690.695 9  20289383.403 9  20289385.624 9
  21055184.350 9 110645814.955 9  86217529.356 9  21055181.456 9  21055183.615 9
  22565130.887 9 118580562.922 9  92400431.470 8  22565127.264 8  22565130.047 8
  23057518.078 8 121168077.713 8  94416676.481 7  23057515.382 7  23057516.940 7
  24839441.129 7 130532150.960 7 101713353.958 4  24839437.186 4  24839439.345 4
  23618410.981 8 124115616.824 8  96713469.111 7  23618407.227 7  23618410.202 7
  24760684.477 7 130118275.489 7 101390846.119 5  24760680.925 5  24760682.993 5
  24610472.423 7 129328955.998 7 100775814.866 6  24610467.439 6  24610470.573 6
  20627524.408 9 108398418.881 9  84466299.053 9  20627518.732 9  20627523.074 9
 09  6 30  0 31 30.0000000  0 11G22G 7G 3G 6G11G32G 8G16G14G18G19
  22056440.778 9 115907419.259 9  90317460.700 9  22056435.414 9  22056440.312 9
  24738304.172 7 130000676.861 7 101299228.235 5  24738300.644 5  24738303.472 5
  20294685.736 9 106649350.988 9  83103390.335 9  20294682.901 9  20294684.830 9
  21062307.494 9 110683247.117 9  86246697.270 9  21062304.474 9  21062306.689 9
  22551273.932 9 118507743.078 9  92343688.735 8  22551269.830 8  22551273.050 8
  23037398.959 8 121062350.436 8  94334291.586 7  23037395.939 7  23037397.736 7
  24840459.155 7 130537503.116 7 101717524.440 5  24840457.057 5  24840458.585 5
  23638826.606 8 124222900.076 8  96797066.424 7  23638822.477 7  23638825.142 7
  24747832.835 7 130050740.444 7 101338221.453 5  24747829.241 5  24747831.331 5
  24627185.514 7 129416787.556 7 100844255.066 6  24627180.827 6  24627183.647 6
  20623104.537 9 108375192.159 9  84448200.316 9  20623099.027 9  20623102.950 9
 09  6 30  0 32  0.0000000  0 11G22G 7G 3G 6G11G32G 8G16G14G18G19
  22066867.287 9 115962210.764 9  90360155.384 9  22066861.589 9  22066866.318 9
  24749131.329 7 130057578.220 7 101343566.965 6  24749128.807 6  24749130.869 6
  20300057.258 9 106677578.078 9  83125385.472 9  20300054.210 9  20300056.285 9
  21069490.247 9 110720992.219 9  86276109.026 9  21069487.179 9  21069489.501 9
  22537452.174 9 118435112.788 9  92287093.735 8  22537448.752 8  22537451.714 8
  23017316.891 8 120956815.773 8  94252056.783 7  23017312.930 7  23017315.236 7
  24841577.887 7 130543384.097 7 101722107.001 4  24841576.960 4  24841577.373 4
  23659266.458 8 124330312.087 8  96880764.076 7  23659262.299 7  23659265.227 7
  24735014.894 7 129983382.156 7 101285734.484 5  24735010.969 5  24735013.459 5
