          3.02           OBSERVATION DATA    M (MIXED)           RINEX VERSION / TYPE
NetR9 5.54          Receiver Operator   20250314 072556 UTC PGM / RUN BY / DATE
JNAV00VNM                                                   MARKER NAME
JNAV00VNM                                                   MARKER NUMBER
GEODETIC                                                    MARKER TYPE         
NAVIS               HUST                                    OBSERVER / AGENCY   
5426R48968          TRIMBLE NETR9       5.54                REC # / TYPE / VERS
                    TRM57971.00     NONE                    ANT # / TYPE
 -1626584.7059  5730519.4577  2271864.3917                  APPROX POSITION XYZ
        0.0000        0.0000        0.0000                  ANTENNA: DELTA H/E/N
G   12 C1C L1C S1C C2W L2W S2W C2X L2X S2X C5X L5X S5X      SYS / # / OBS TYPES
     1.000                                                  INTERVAL
  2025     3    14     7    25   56.0000000     GPS         TIME OF FIRST OBS
G L2X -0.25000                                              SYS / PHASE SHIFT   
R L1P  0.25000                                              SYS / PHASE SHIFT   
R L2C -0.25000                                              SYS / PHASE SHIFT   
J L2X  0.25000                                              SYS / PHASE SHIFT   
DBHZ                                                        SIGNAL STRENGTH UNIT
                                                            GLONASS COD/PHS/BIS 
                                                            END OF HEADER       
> 2025  3 14  7 25 56.0000000  0 11       -.000284678000
G19  21553610.125 7 113265171.53117        45.100    21553627.172 5  88258534.86215        34.700
G17  21756243.047 7 114329896.27117        45.000    21756261.660 7  89088339.99517        42.600    21756261.270 7  89088260.99917        44.800
G14  20008874.703 7 105147419.61717        47.000    20008893.941 6  81933089.41916        40.400    20008894.016 8  81933026.41418        52.500    20008900.570 9  78519203.95319        54.300
G30  23525701.945 5 123628260.23615        35.400    23525730.820 4  96333771.55314        29.400    23525730.609 6  96333697.56716        38.800    23525734.797 7  92320005.05117        44.800
G01  25423140.539 4 133599491.71814        29.100    25423162.418 2 104103600.78212        12.600    25423162.527 5 104103499.80315        33.900    25423168.895 6  99765843.93916        37.200
G20  24658344.492 5 129580696.50015        33.400    24658370.879 2 100971906.29312        15.600
G06  20988698.438 7 110296429.32917        47.000    20988722.238 8  85945386.79218        48.200    20988722.695 8  85945328.79218        48.600    20988726.066 8  82364340.68418        52.100
G24  25101313.352 5 131908340.17215        32.300    25101339.426 3 102785776.65113        20.400    25101339.539 5 102785667.65615        31.300    25101346.051 6  98502955.86116        39.000
G22  20541972.422 7 107948913.99717        45.800    20541989.043 6  84116047.66416        39.000
G03  22873318.789 6 120200055.33116        37.500    22873343.336 5  93662590.39015        31.200    22873343.316 6  93662535.39316        38.900    22873348.215 7  89759916.36417        44.900
G11  23063074.906 6 121197270.62816        41.000    23063102.797 4  94439533.01714        26.000    23063102.023 7  94439456.00817        42.900    23063110.555 7  90504528.25917        46.800
> 2025  3 14  7 25 57.0000000  0 11       -.000284678000
G19  21553421.797 7 113264181.167 7        45.400    21553438.609 5  88257763.154 5        35.100
G17  21756256.203 7 114329965.741 7        44.900    21756275.027 7  89088394.126 7        42.200    21756274.242 7  89088315.127 7        44.500
G14  20009030.758 7 105148239.569 7        47.100    20009049.852 6  81933728.344 6        40.400    20009049.789 8  81933665.335 8        52.100    20009056.609 9  78519816.252 9        54.400
G30  23526248.938 5 123631136.599 5        35.400    23526278.254 4  96336012.880 4        28.800    23526278.168 6  96335938.890 6        39.000    23526282.105 7  92322152.991 7        45.000
G01  25423744.438 4 133602654.927 4        28.600    25423764.273 2 104106065.641 2        12.600    25423764.152 5 104105964.654 5        34.900    25423770.691 6  99768206.085 6        36.600
G20  24657663.195 5 129577122.511 5        33.200    24657690.840 2 100969121.379 2        14.800
G06  20988572.070 7 110295765.981 7        47.000    20988596.027 8  85944869.902 8        48.000    20988596.387 8  85944811.898 8        48.400    20988599.797 8  82363845.333 8        52.200
G24  25101177.117 5 131907623.379 5        32.600    25101203.098 3 102785218.093 3        20.900    25101202.984 5 102785109.113 5        31.500    25101209.625 6  98502420.593 6        38.800
G22  20541822.617 7 107948127.856 7        45.600    20541839.383 6  84115435.087 6        38.900
G03  22873718.680 6 120202158.926 6        37.300    22873743.574 5  93664229.547 5        30.500    22873743.820 6  93664174.556 6        38.600    22873748.539 7  89761487.233 7        44.500
G11  23062659.938 6 121195089.385 6        40.900    23062687.691 4  94437833.344 4        26.200    23062687.180 7  94437756.345 7        43.400    23062695.535 7  90502899.413 7        46.500
> 2025  3 14  7 25 58.0000000  0 11       -.000284679000
G19  21553233.633 7 113263190.799 7        45.200    21553250.148 5  88256991.437 5        34.900
G17  21756269.609 7 114330035.195 7        45.100    21756288.199 7  89088448.245 7        42.400    21756287.750 7  89088369.250 7        44.700
G14  20009186.984 7 105149060.101 7        47.000    20009206.063 6  81934367.719 6        41.200    20009205.879 8  81934304.710 8        52.600    20009212.770 9  78520428.987 9        54.100
G30  23526796.359 5 123634012.917 5        35.000    23526825.660 4  96338254.164 4        29.100    23526825.617 6  96338180.170 6        39.000    23526829.406 7  92324300.886 7        44.700
G01  25424346.375 4 133605818.002 4        28.900    25424366.164 2 104108530.37212        12.600    25424365.996 5 104108429.386 5        34.700    25424372.504 6  99770568.127 6        36.200
G20  24656983.195 5 129573548.498 5        33.700    24657010.656 2 100966336.406 2        14.800
G06  20988446.078 7 110295103.081 7        47.200    20988469.926 8  85944353.359 8        48.100    20988470.020 8  85944295.356 8        48.500    20988473.648 8  82363350.315 8        51.700
G24  25101039.555 5 131906907.091 5        32.300    25101066.844 3 102784659.932 3        20.900    25101066.590 5 102784550.949 5        31.300    25101073.102 6  98501885.695 6        38.900
G22  20541672.875 7 107947342.172 7        45.800    20541689.898 6  84114822.864 6        38.800
G03  22874119.266 6 120204263.041 6        37.600    22874143.945 5  93665869.128 5        30.400    22874144.023 6  93665814.130 6        39.000    22874148.898 7  89763058.493 7        44.300
G11  23062244.859 6 121192908.488 6        41.300    23062272.672 4  94436133.952 4        28.100    23062272.453 7  94436056.944 7        42.800    23062280.488 7  90501270.825 7        46.700
> 2025  3 14  7 25 59.0000000  0 11       -.000284679000
G19  21553044.531 7 113262200.473 7        45.200    21553061.711 5  88256219.761 5        34.900
G17  21756282.406 7 114330104.673 7        44.900    21756301.355 7  89088502.384 7        42.300    21756301.180 7  89088423.384 7        44.400
G14  20009343.414 7 105149881.261 7        46.600    20009362.539 6  81935007.578 6        40.700    20009362.273 8  81934944.575 8        52.500    20009369.012 9  78521042.189 9        54.400
G30  23527343.680 5 123636889.227 5        35.400    23527373.090 4  96340495.441 4        29.100    23527372.691 6  96340421.445 6        39.000    23527376.641 7  92326448.774 7        44.700
G01  25424947.477 4 133608980.948 4        28.900    25424967.969 2 104110994.968 2        13.900    25424967.988 5 104110894.051 5        34.500    25424974.363 6  99772930.095 6        36.100
G20  24656303.023 5 129569974.495 5        33.200    24656330.406 2 100963551.507 2        15.600
G06  20988320.078 7 110294440.678 7        47.200    20988343.809 8  85943837.204 8        48.100    20988344.059 8  85943779.202 8        48.200    20988347.547 8  82362855.666 8        52.000
G24  25100903.945 5 131906191.348 5        32.800    25100930.730 3 102784102.200 3        21.100    25100930.914 5 102783993.213 5        31.200    25100936.922 6  98501351.191 6        39.400
G22  20541523.609 7 107946556.981 7        45.700    20541540.566 6  84114211.025 6        38.800
G03  22874520.313 6 120206367.727 6        37.400    22874544.457 5  93667509.140 5        31.000    22874544.582 6  93667454.153 6        39.000    22874549.352 7  89764630.185 7        44.400
G11  23061829.891 6 121190727.976 6        40.700    23061857.859 4  94434434.849 4        25.500    23061857.688 7  94434357.855 7        43.000    23061865.523 7  90499642.526 7        47.000
> 2025  3 14  7 26  0.0000000  0 11       -.000284679000
G19  21552856.344 7 113261210.194 7        45.100    21552873.316 5  88255448.115 5        34.600
G17  21756295.422 7 114330174.168 7        44.900    21756314.605 7  89088556.534 7        42.700    21756314.152 7  89088477.537 7        44.300
G14  20009499.797 7 105150703.052 7        46.600    20009518.809 6  81935647.936 6        40.900    20009518.668 8  81935584.926 8        52.800    20009525.398 9  78521655.858 9        54.400
G30  23527891.844 5 123639765.515 5        35.700    23527920.512 4  96342736.713 4        29.300    23527919.984 6  96342662.697 6        38.900    23527923.938 7  92328596.647 7        44.700
G01  25425549.859 4                        28.000    25425570.078 2                        12.600    25425570.609 5 104113358.620 5        34.000    25425576.160 6  99775291.985 6        36.300
G20  24655622.695 5 129566400.529 5        34.200    24655650.352 2 100960766.571 2        16.300
G06  20988194.203 7 110293778.776 7        47.300    20988217.895 8  85943321.440 8        48.000    20988218.230 8  85943263.436 8        48.700    20988221.637 8  82362361.390 8        52.100
G24  25100768.328 5 131905476.120 5        32.800    25100794.676 3 102783544.855 3        21.700    25100794.641 5 102783435.868 5        31.700    25100800.770 6  98500817.073 6        39.100
G22  20541374.336 7 107945772.288 7        45.700    20541391.152 6  84113599.575 6        38.800
G03  22874920.648 6 120208472.983 6        37.000    22874945.129 5  93669149.613 5        30.200    22874945.566 6  93669094.614 6        38.700    22874949.945 7  89766202.298 7        44.600
G11  23061414.734 6 121188547.856 6        40.600    23061443.039 4  94432736.063 4        25.300    23061442.527 7  94432659.060 7        43.200    23061450.660 7  90498014.516 7        47.200
> 2025  3 14  7 26  1.0000000  0 11       -.000284679000
G19  21552667.820 7 113260219.910 7        45.100    21552684.832 5  88254676.467 5        34.700
G17  21756308.430 7 114330243.635 7        44.900    21756327.953 7  89088610.665 7        42.400    21756327.594 7  89088531.668 7        44.900
G14  20009656.297 7 105151525.411 7        46.700    20009675.180 6  81936288.732 6        40.800    20009675.176 8  81936225.727 8        52.400    20009681.895 9  78522269.959 9        54.300
G30  23528439.578 6 123642641.731 6        36.100    23528467.867 4  96344977.908 4        29.400    23528467.117 6  96344903.915 6        38.900    23528471.230 7  92330744.473 7        45.000
G01  25426151.297 4                        29.400    25426172.066 2                        13.900    25426172.055 5 104115823.117 5        34.200    25426177.852 6  99777653.813 6        36.000
G20  24654943.656 5 129562826.512 5        33.400    24654970.285 2 100957981.617 2        14.800
G06  20988068.344 7 110293117.318 7        47.500    20988092.063 8  85942806.021 8        48.100    20988092.258 8  85942748.018 8        48.700    20988095.742 8  82361867.449 8        51.900
G24  25100632.578 5 131904761.363 5        32.300    25100658.668 3 102782987.885 3        21.100    25100658.754 5 102782878.915 5        30.700    25100664.824 6  98500283.329 6        39.000
G22  20541225.219 7 107944988.041 7        45.700    20541241.926 6  84112988.470 6        39.000
G03  22875321.047 6 120210578.775 6        37.500    22875345.738 5  93670790.488 5        30.200    22875346.227 6  93670735.496 6        38.900    22875350.570 7  89767774.802 7        44.500
G11  23061000.523 6 121186368.063 6        41.200    23061028.168 4  94431037.530 4        26.000    23061027.961 7  94430960.529 7        43.000    23061035.844 7  90496386.760 7        46.700
> 2025  3 14  7 26  2.0000000  0 11       -.000284679000
G19  21552479.242 7 113259229.604 7        45.200    21552496.336 5  88253904.802 5        34.400
G17  21756322.141 7 114330313.058 7        45.100    21756341.078 7  89088664.758 7        42.600    21756340.660 7  89088585.761 7        45.000
G14  20009812.688 7 105152348.335 7        47.000    20009831.832 6  81936929.969 6        40.600    20009831.668 8  81936866.962 8        52.500    20009838.488 9  78522884.477 9        54.400
G30  23528987.414 6 123645517.865 6        36.400    23529015.168 4  96347219.048 4        29.400    23529014.855 6  96347145.059 6        38.900    23529018.457 7  92332892.237 7        44.700
G01  25426753.398 4 133618469.185 4        28.900                                                    25426773.965 5 104118287.464 5        34.200    25426779.453 5  99780015.464 5        35.500
G20  24654263.125 5 129559252.440 5        32.900    24654289.996 2 100955196.592 2        13.900
G06  20987942.508 7 110292456.288 7        47.700    20987966.148 8  85942290.935 8        48.200    20987966.344 8  85942232.935 8        49.000    20987969.945 8  82361373.825 8        52.000
G24  25100495.805 5 131904047.067 5        32.500    25100522.637 3 102782431.263 3        20.100    25100522.188 5 102782322.315 5        31.100    25100529.008 6  98499749.922 6        39.400
G22  20541075.992 7 107944204.216 7        45.800    20541092.859 6  84112377.699 6        38.900
G03  22875721.977 6 120212685.057 6        37.300    22875746.516 5  93672431.750 5        30.800    22875747.105 6  93672376.756 6        39.300    22875751.352 7  89769347.680 7        44.400
G11  23060585.719 6 121184188.607 6        40.800    23060613.359 4  94429339.253 4        25.700    23060613.117 7  94429262.249 7        42.900    23060621.168 7  90494759.245 7        46.300
> 2025  3 14  7 26  3.0000000  0 11       -.000284679000
G19  21552290.906 7 113258239.323 7        45.600    21552308.016 5  88253133.154 5        34.300
G17  21756335.320 7 114330382.484 7        45.100    21756354.188 7  89088718.855 7        42.400    21756353.875 7  89088639.856 7        45.000
G14  20009969.391 7 105153171.858 7        47.300    20009988.391 6  81937571.672 6        40.600    20009988.391 8  81937508.669 8        52.500    20009995.223 9  78523499.443 9        54.400
G30  23529534.359 6 123648393.960 6        36.400    23529562.453 4  96349460.170 4        29.100    23529561.914 6  96349386.167 6        38.800    23529565.750 7  92335039.969 7        45.000
G01  25427356.086 4 133621631.640 4        29.900                                                    25427375.785 5 104120751.728 5        33.800    25427381.113 5  99782377.053 5        35.800
G20  24653582.883 5 129555678.366 5        33.300    24653609.789 2 100952411.683 2        14.800
G06  20987816.914 8 110291795.730 8        48.000    20987840.563 8  85941776.217 8        48.100    20987840.539 8  85941718.215 8        48.900    20987844.250 8  82360880.555 8        52.000
G24  25100359.945 5 131903333.305 5        32.400    25100386.836 3 102781875.093 3        20.900    25100386.898 5 102781766.108 5        31.800    25100393.195 6  98499216.907 6        39.300
G22  20540926.789 7 107943420.874 7        45.800    20540943.715 6  84111767.301 6        38.900
G03  22876123.281 6 120214791.902 6        36.900    22876147.434 5  93674073.451 5        31.200    22876148.121 6  93674018.448 6        39.300    22876152.215 7  89770920.970 7        44.500
G11  23060170.398 6 121182009.515 6        40.600    23060198.832 4  94427641.249 4        26.900    23060198.547 7  94427564.254 7        43.100    23060206.492 7  90493131.997 7        46.600
> 2025  3 14  7 26  4.0000000  0 11       -.000284679000
G19  21552102.211 7 113257249.044 7        44.900    21552119.566 5  88252361.509 5        34.000
G17  21756348.219 7 114330451.893 7        45.100    21756367.535 7  89088772.940 7        42.300    21756367.242 7  89088693.943 7        44.600
G14  20010126.195 7 105153995.972 7        46.900    20010145.258 6  81938213.839 6        40.500    20010145.176 8  81938150.833 8        52.100    20010152.000 9  78524114.850 9        54.100
G30  23530081.922 5 123651270.019 5        35.100    23530109.641 4  96351701.253 4        28.900    23530109.270 6  96351627.242 6        38.600    23530112.977 7  92337187.674 7        44.200
G01  25427958.859 5 133624793.983 5        30.300                                                    25427977.105 5 104123215.894 5        33.900    25427982.762 5  99784738.532 5        35.700
G20  24652902.945 5 129552104.289 5        33.000    24652929.656 2 100949626.592 2        15.600
G06  20987691.055 7 110291135.628 7        47.800    20987714.969 8  85941261.856 8        48.000    20987715.148 8  85941203.855 8        49.100    20987718.648 8  82360387.626 8        51.700
G24  25100222.961 5 131902620.033 5        32.000    25100251.199 3 102781319.308 3        20.100    25100251.398 5 102781210.309 5        31.500    25100257.570 6  98498684.249 6        39.400
G22  20540777.672 7 107942637.988 7        45.800    20540794.688 6  84111157.259 6        38.600
G03  22876523.914 6 120216899.274 6        36.900    22876548.574 5  93675715.562 5        30.700    22876548.652 6  93675660.555 6        39.100    22876553.250 7  89772494.659 7        44.300
G11  23059755.555 6 121179830.767 6        40.700    23059784.117 4  94425943.540 4        25.700    23059783.660 7  94425866.534 7        42.800    23059791.891 7  90491505.014 7        46.300
> 2025  3 14  7 26  5.0000000  0 11       -.000284679000
G19  21551914.313 7 113256258.786 7        45.300    21551931.023 5  88251589.884 5        34.000
G17  21756361.938 7 114330521.295 7        45.100    21756380.703 7  89088827.019 7        42.400    21756380.488 7  89088748.020 7        44.500
G14  20010283.156 7 105154820.674 7        47.000    20010302.266 6  81938856.462 6        40.900    20010302.145 8  81938793.457 8        52.200    20010308.984 9  78524730.699 9        54.200
G30  23530627.656 5 123654146.019 5        35.400    23530656.949 4  96353942.279 4        28.700    23530656.523 6  96353868.282 6        38.700    23530660.227 7  92339335.336 7        43.900
G01  25428560.203 4 133627956.182 4        29.400                                                    25428578.734 5 104125679.961 5        33.800    25428584.617 5  99787099.929 5        35.700
G20  24652221.742 5 129548530.188 5        32.600    24652249.613 2 100946841.600 2        15.600
G06  20987565.484 7 110290475.994 7        47.900    20987589.445 8  85940747.859 8        48.000    20987589.594 8  85940689.856 8        49.100    20987593.102 8  82359895.047 8        51.900
G24  25100088.406 5 131901907.258 5        32.500    25100115.676 3 102780763.871 3        19.300    25100116.043 5 102780654.895 5        31.800    25100122.051 6  98498151.971 6        39.600
G22  20540629.156 7 107941855.570 7        45.800    20540645.855 6  84110547.581 6        38.500
G03  22876924.797 6 120219007.187 6        36.800    22876949.656 5  93677358.093 5        30.400    22876949.805 6  93677303.080 6        39.000    22876954.344 7  89774068.751 7        44.500
G11  23059341.289 6 121177652.369 6        40.500    23059369.410 4  94424246.094 4        26.100    23059369.027 7  94424169.090 7        43.000    23059377.391 7  90489878.296 7        46.300
> 2025  3 14  7 26  6.0000000  0 11       -.000284679000
G19  21551725.625 7 113255268.559 7        45.300    21551742.691 5  88250818.282 5        34.500
G17  21756375.133 7 114330590.707 7        45.200    21756393.887 7  89088881.104 7        42.500    21756393.684 7  89088802.105 7        44.700
G14  20010439.875 7 105155645.994 7        47.200    20010459.328 6  81939499.567 6        40.500    20010459.309 8  81939436.563 8        52.300    20010466.039 9  78525347.007 9        54.400
G30  23531175.086 5 123657022.000 5        34.800    23531204.207 4  96356183.303 4        28.100    23531203.523 6  96356109.301 6        37.800    23531207.496 7  92341482.970 7        44.300
G01  25429161.617 4 133631118.305 4        28.900                                                    25429180.789 5 104128143.949 5        34.100    25429186.199 5  99789461.260 5        35.900
G20  24651541.820 5 129544956.106 5        32.900    24651569.574 2 100944056.604 2        15.600
G06  20987439.922 8 110289816.846 8        48.100    20987463.969 7  85940234.240 7        47.800    20987464.219 8  85940176.236 8        49.100    20987467.645 8  82359402.828 8        52.100
G24  25099953.469 5 131901195.009 5        32.500    25099980.156 3 102780208.871 3        21.500    25099980.141 5 102780099.879 5        32.500    25099986.594 6  98497620.086 6        39.600
G22  20540480.039 7 107941073.634 7        46.400    20540497.055 6  84109938.281 6        38.800
G03  22877326.266 6 120221115.651 6        36.900    22877350.996 5  93679001.045 5        30.500    22877351.008 6  93678946.040 6        38.900    22877355.598 7  89775643.259 7        44.500
G11  23058926.789 6 121175474.354 6        40.800    23058954.816 4  94422548.935 4        25.300    23058954.313 7  94422471.936 7        42.900    23058962.910 7  90488251.861 7        46.400
> 2025  3 14  7 26  7.0000000  0 11       -.000284681000
G19  21551537.195 7 113254278.310 7        45.300    21551554.379 5  88250046.658 5        34.000
G17  21756388.469 7 114330660.087 7        45.200    21756407.137 7  89088935.164 7        42.800    21756406.848 7  89088856.167 7        44.500
G14  20010597.188 7 105156471.884 7        47.300    20010616.402 6  81940143.115 6        40.800    20010616.477 8  81940080.109 8        52.200    20010623.191 9  78525963.739 9        54.400
G30  23531721.711 5 123659897.905 5        35.200    23531751.336 4  96358424.271 4        29.200    23531750.613 6  96358350.256 6        37.600    23531754.883 7  92343630.562 7        44.400
G01  25429763.906 5 133634280.23515        30.100                                                    25429782.188 5 104130607.812 5        34.600    25429787.977 5  99791822.448 5        35.900
G20  24650862.523 5 129541381.968 5        32.000    24650889.516 2 100941271.599 2        15.600
G06  20987314.852 7 110289158.136 7        47.800    20987338.660 8  85939720.962 8        48.200    20987338.957 8  85939662.959 8        49.000    20987342.297 8  82358910.939 8        52.200
G24  25099817.734 5 131900483.239 5        32.200    25099844.734 3 102779654.230 3        20.900    25099844.762 5 102779545.233 5        32.000    25099851.227 6  98497088.550 6        39.700
G22  20540331.398 7 107940292.134 7        46.200    20540348.309 6  84109329.319 6        38.800
G03  22877728.516 6 120223224.621 6        36.900    22877752.324 5  93680644.411 5        31.300    22877751.922 6  93680589.404 6        38.700    22877756.879 7  89777218.150 7        44.300
G11  23058512.086 6 121173296.665 6        40.800    23058540.375 4  94420852.040 4        25.400    23058540.016 7  94420775.041 7        42.900    23058548.516 7  90486625.672 7        46.600
> 2025  3 14  7 26  8.0000000  0 11       -.000284681000
G19  21551348.773 7 113253288.065 7        45.100    21551365.953 5  88249275.040 5        34.000
G17  21756401.547 7 114330729.442 7        45.200    21756420.344 7  89088989.207 7        42.700    21756420.012 7  89088910.204 7        44.600
G14  20010754.516 7 105157298.349 7        47.100    20010773.738 6  81940787.109 6        40.400    20010773.871 8  81940724.109 8        52.100    20010780.441 9  78526580.902 9        54.100
G30  23532269.477 5 123662773.752 5        35.500    23532298.402 4  96360665.174 4        29.400    23532297.766 6  96360591.178 6        37.700    23532302.121 7  92345778.103 7        44.200
G01  25430364.758 4 133637442.064 4        29.100                                                    25430384.273 5 104133071.558 5        34.600    25430389.688 5  99794183.549 5        35.900
G20  24650182.234 5 129537807.824 5        33.200    24650209.383 2 100938486.518 2        16.300
G06  20987189.367 7 110288499.871 7        47.900    20987213.277 8  85939208.032 8        48.300    20987213.684 8  85939150.029 8        49.100    20987217.051 8  82358419.380 8        51.700
G24  25099680.109 5 131899771.935 5        31.600    25099709.496 3 102779099.967 3        20.100    25099709.680 5 102778990.978 5        31.500    25099715.762 6  98496557.380 6        39.400
G22  20540182.781 7 107939511.081 7        45.800    20540199.711 6  84108720.707 6        38.800
G03  22878129.461 6 120225334.135 6        37.000    22878153.684 5  93682288.187 5        30.000    22878153.512 6  93682233.182 6        38.500    22878158.313 7  89778793.436 7        44.400
G11  23058097.688 6 121171119.318 6        41.200    23058125.938 4  94419155.412 4        25.900    23058125.801 7  94419078.415 7        42.800    23058134.160 7  90484999.734 7        46.300
> 2025  3 14  7 26  9.0000000  0 11       -.000284681000
G19  21551160.219 7 113252297.893 7        45.300    21551177.496 5  88248503.476 5        34.700
G17  21756414.805 7 114330798.844 7        45.200    21756433.465 7  89089043.281 7        42.500    21756433.320 7  89088964.282 7        44.800
G14  20010912.117 7 105158125.466 7        46.900    20010931.188 6  81941431.619 6        40.400    20010931.184 8  81941368.614 8        52.300    20010937.887 9  78527198.553 9        54.500
G30  23532816.867 5 123665649.595 5        34.800    23532845.457 4  96362906.089 4        28.300    23532844.855 6  96362832.098 6        37.700    23532849.391 7  92347925.649 7        44.500
G01  25430965.992 5 133640603.751 5        30.300                                                    25430985.434 5 104135535.307 5        34.700    25430991.297 6  99796544.567 6        36.100
G20  24649501.508 5 129534233.713 5        32.800    24649529.293 2 100935701.505 2        16.300
G06  20987064.344 7 110287842.134 7        47.800    20987088.156 8  85938695.513 8        48.500    20987088.516 8  85938637.510 8        48.800    20987091.922 8  82357928.216 8        52.200
G24  25099545.367 5 131899061.190 5        32.200    25099574.309 3 102778546.109 3        20.900    25099574.418 5 102778437.138 5        32.600    25099580.539 6  98496026.628 6        39.600
G22  20540034.523 7 107938730.554 7        45.700    20540051.250 6  84108112.501 6        39.200
G03  22878530.852 6 120227444.231 6        37.200    22878555.371 5  93683932.422 5        30.900    22878554.723 6  93683877.420 6        38.400    22878559.875 7  89780369.164 7        44.400
G11  23057684.344 6 121168942.389 6        40.700    23057711.789 4  94417459.109 4        26.900    23057711.531 7  94417382.109 7        42.800    23057719.914 7  90483374.110 7        47.000
> 2025  3 14  7 26 10.0000000  0 11       -.000284681000
G19  21550971.711 7 113251307.690 7        45.300    21550989.113 5  88247731.888 5        34.800
G17  21756427.813 7 114330868.205 7        45.100    21756446.734 7  89089097.333 7        42.800    21756446.563 7  89089018.332 7        44.900
G14  20011069.453 7 105158953.142 7        46.700    20011088.641 6  81942076.560 6        40.600    20011088.645 8  81942013.555 8        52.600    20011095.355 9  78527816.622 9        54.400
G30  23533364.070 5 123668525.361 5        35.000    23533392.598 4  96365146.950 4        27.600    23533392.395 6  96365072.955 6        37.200    23533396.586 7  92350073.134 7        44.300
G01  25431569.141 4                        29.400                                                    25431586.922 5 104137998.819 5        34.100    25431592.973 5  99798905.512 5        35.300
G20  24648821.594 5 129530659.560 5        32.600    24648849.098 2 100932916.465 2        14.800
G06  20986939.180 7 110287184.821 7        47.500    20986963.156 8  85938183.323 8        48.100    20986963.344 8  85938125.323 8        48.600    20986966.805 8  82357437.371 8        52.100
G24  25099410.727 5 131898350.897 5        32.400    25099439.254 3 102777992.643 3        20.400    25099439.859 5 102777883.663 5        32.200    25099445.477 6  98495496.212 6        39.600
G22  20539885.633 7 107937950.457 7        45.800    20539902.770 6  84107504.632 6        39.000
G03  22878932.188 6 120229554.843 6        37.200    22878956.941 5  93685577.059 5        30.400    22878956.801 6  93685522.053 6        38.600    22878961.438 7  89781945.269 7        44.700
G11  23057269.633 6 121166765.773 6        40.600    23057297.504 4  94415763.038 4        26.500    23057297.027 7  94415686.051 7        43.000    23057305.703 7  90481748.719 7        46.900
> 2025  3 14  7 26 11.0000000  0 11       -.000284681000
G19  21550783.250 7 113250317.442 7        45.100    21550800.641 5  88246960.275 5        34.600
G17  21756440.883 7 114330937.501 7        45.300    21756459.883 7  89089151.330 7        42.700    21756459.863 7  89089072.328 7        44.800
G14  20011227.281 7 105159781.354 7        46.700    20011246.238 6  81942721.915 6        40.600    20011246.340 8  81942658.913 8        52.500    20011252.965 9  78528435.089 9        54.500
G30  23533911.094 5 123671401.007 5        34.800    23533939.793 4  96367387.716 4        28.000    23533939.418 6  96367313.725 6        37.400    23533943.816 7  92352220.540 7        43.900
G01  25432170.219 4                        28.600                                                    25432188.031 5 104140462.278 5        34.100    25432194.668 5  99801266.301 5        35.100
G20  24648141.242 5 129527085.350 5        32.400    24648169.066 2 100930131.397 2        15.600
G06  20986814.414 7 110286527.909 7        47.600    20986838.047 8  85937671.449 8        48.100    20986838.395 8  85937613.448 8        48.500    20986841.777 8  82356946.825 8        52.000
G24  25099275.453 5 131897641.065 5        31.900    25099304.270 3 102777439.505 3        20.100    25099304.750 5 102777330.540 5        32.600    25099310.316 6  98494966.120 6        39.500
G22  20539737.617 7 107937170.779 7        45.900    20539754.305 6  84106897.095 6        38.700
G03  22879334.242 6 120231665.925 6        37.000    22879358.563 5  93687222.056 5        30.400    22879358.520 6  93687167.054 6        38.300    22879363.254 7  89783521.729 7        44.600
G11  23056855.445 6 121164589.459 6        40.800    23056883.188 4  94414067.217 4        26.300    23056882.918 7  94413990.223 7        43.000    23056891.535 7  90480123.553 7        47.000
> 2025  3 14  7 26 12.0000000  0 11       -.000284681000
G19  21550594.969 7 113249327.238 7        45.300    21550612.145 5  88246188.688 5        34.200
G17  21756454.055 7 114331006.815 7        45.200    21756473.188 7  89089205.337 7        42.200    21756472.973 7  89089126.339 7        45.200
G14  20011384.938 7 105160610.192 7        46.600    20011403.867 6  81943367.760 6        40.700    20011403.867 8  81943304.757 8        52.600    20011410.703 9  78529054.022 9        54.500
G30  23534458.281 5 123674276.668 5        34.300    23534487.008 4  96369628.481 4        28.700    23534486.789 6  96369554.485 6        37.400    23534491.059 7  92354367.929 7        44.200
G01  25432771.180 4                        28.600                                                    25432789.344 5 104142925.606 5        34.200    25432796.313 5  99803627.023 5        35.100
G20  24647460.891 5 129523511.141 5        33.100    24647488.961 2 100927346.273 2        15.600
G06  20986689.336 8 110285871.495 8        48.500    20986713.195 8  85937159.961 8        48.000    20986713.305 8  85937101.958 8        48.400    20986716.832 8  82356456.648 8        52.300
G24  25099140.148 5 131896931.747 5        32.200    25099169.379 3 102776886.784 3        19.300    25099169.754 5 102776777.816 5        32.600    25099175.152 6  98494436.437 6        39.800
G22  20539589.266 7 107936391.609 7        46.000    20539606.035 6  84106289.944 6        38.900
G03  22879735.602 6 120233777.569 6        36.900    22879760.430 5  93688867.504 5        30.000    22879760.031 6  93688812.498 6        38.400    22879765.063 7  89785098.613 7        44.500
G11  23056441.156 6 121162413.528 6        41.000    23056469.082 4  94412371.699 4        26.200    23056468.523 7  94412294.701 7        42.600    23056477.480 7  90478498.677 7        46.800
> 2025  3 14  7 26 13.0000000  0 11       -.000284681000
G19  21550406.641 7 113248337.106 7        45.100    21550423.711 5  88245417.155 5        34.600
G17  21756467.688 7 114331076.182 7        45.400    21756486.387 7  89089259.387 7        42.800    21756485.953 7  89089180.385 7        44.700
G14  20011542.742 7 105161439.678 7        46.500    20011561.773 6  81944014.114 6        40.500    20011561.617 8  81943951.110 8        52.800    20011568.523 9  78529673.443 9        54.300
G30  23535004.055 5 123677152.323 5        33.900    23535034.262 4  96371869.252 4        27.300    23535033.738 6  96371795.246 6        37.300    23535038.367 7  92356515.325 7        44.200
G01  25433372.500 4 133653249.351 4        28.300                                                    25433391.445 5 104145388.915 5        33.900    25433398.172 5  99805987.707 5        35.300
G20  24646781.102 5 129519936.987 5        32.600    24646808.855 2 100924561.202 2        13.900
G06  20986564.531 8 110285215.607 8        48.000    20986588.367 8  85936648.880 8        48.100    20986588.484 8  85936590.879 8        48.500    20986591.973 8  82355966.865 8        52.100
G24  25099006.164 5 131896222.996 5        33.100    25099034.496 3 102776334.503 3        19.000    25099034.383 5 102776225.533 5        32.300    25099040.266 6  98493907.165 6        39.400
G22  20539440.922 7 107935612.955 7        46.000    20539457.918 6  84105683.198 6        38.600
G03  22880138.203 6 120235889.821 6        37.000    22880162.375 5  93690513.425 5        30.400    22880161.883 6  93690458.413 6        38.100    22880166.988 7  89786675.949 7        44.600
G11  23056027.547 6 121160238.017 6        41.100    23056055.043 4  94410676.498 4        26.400    23056054.531 7  94410599.499 7        42.800    23056063.473 7  90476874.112 7        46.700
> 2025  3 14  7 26 14.0000000  0 11       -.000284681000
G19  21550218.172 7 113247346.994 7        45.100    21550235.344 5  88244645.646 5        34.100
G17  21756481.109 7 114331145.538 7        45.200    21756499.539 7  89089313.431 7        43.000    21756499.336 7  89089234.434 7        44.500
G14  20011700.586 7 105162269.761 7        47.000    20011719.805 6  81944660.930 6        40.400    20011719.594 8  81944597.926 8        53.200    20011726.500 9  78530293.309 9        54.300
G30  23535551.523 5 123680027.947 5        33.800    23535581.402 4  96374109.984 4        28.900    23535581.121 6  96374035.977 6        38.100    23535585.656 7  92358662.691 7        44.300
G01  25433974.734 4                        28.000                                                    25433992.863 5 104147852.109 5        34.200    25433999.625 5  99808348.286 5        34.900
G20  24646101.219 5 129516362.815 5        32.600    24646128.742 2 100921776.167 2        14.800
G06  20986440.008 8 110284560.180 8        48.200    20986463.711 8  85936138.161 8        48.500    20986463.750 8  85936080.159 8        48.100    20986467.313 8  82355477.427 8        51.900
G24  25098870.594 5 131895514.746 5        32.900    25098899.629 3 102775782.628 3        20.400    25098899.332 5 102775673.629 5        31.900    25098905.328 6  98493378.258 6        39.900
G22  20539292.930 7 107934834.780 7        46.200    20539309.805 6  84105076.827 6        39.000
G03  22880539.492 6 120238002.603 6        36.900    22880564.379 4  93692159.743 4        29.700    22880563.949 6  93692104.742 6        38.600    22880569.102 7  89788253.688 7        44.500
G11  23055613.445 6 121158062.860 6        41.400    23055641.164 4  94408981.564 4        27.200    23055640.719 7  94408904.570 7        42.900    23055649.590 7  90475249.809 7        46.700
> 2025  3 14  7 26 15.0000000  0 11       -.000284683000
G19  21550030.078 7 113246356.866 7        45.100    21550046.973 5  88243874.124 5        34.900
G17  21756493.883 7 114331214.866 7        45.200    21756512.793 7  89089367.451 7        42.600    21756512.527 7  89089288.451 7        44.800
G14  20011858.367 7 105163100.414 7        47.000    20011877.867 6  81945308.191 6        40.000    20011877.691 8  81945245.186 8        52.900    20011884.582 9  78530913.599 9        54.400
G30  23536098.125 5 123682903.484 5        33.800    23536128.449 4  96376350.655 4        27.700    23536128.633 6  96376276.660 6        38.300    23536132.883 7  92360810.000 7        44.500
G01  25434575.555 4 133659571.332 4        28.000                                                    25434594.574 5 104150315.190 5        34.000    25434601.301 5  99810708.725 5        35.500
G20  24645420.547 5 129512788.613 5        32.400    24645448.707 2 100918991.035 2        14.800
G06  20986315.430 8 110283905.189 8        48.300    20986338.957 8  85935627.780 8        48.100    20986339.250 8  85935569.779 8        48.300    20986342.621 8  82354988.311 8        51.900
G24  25098736.844 5 131894806.962 5        33.400    25098764.969 3 102775231.122 3        20.400    25098764.176 5 102775122.098 5        32.200    25098770.551 6  98492849.719 6        39.400
G22  20539144.969 7 107934057.046 7        46.300    20539161.789 6  84104470.801 6        38.700
G03  22880941.406 6 120240115.919 6        36.700    22880966.480 4  93693806.490 4        29.500    22880966.223 6  93693751.475 6        38.400    22880971.203 7  89789831.801 7        44.500
G11  23055200.242 6 121155888.034 6        41.400    23055227.414 4  94407286.901 4        27.200    23055227.145 7  94407209.906 7        42.900    23055235.762 7  90473625.758 7        46.400
> 2025  3 14  7 26 16.0000000  0 11       -.000284683000
G19  21549840.750 7 113245366.728 7        45.200    21549858.359 5  88243102.584 5        34.800
G17  21756507.164 7 114331284.152 7        45.100    21756525.902 7  89089421.437 7        42.800    21756526.074 7  89089342.438 7        45.000
G14  20012016.820 7 105163931.630 7        47.100    20012036.168 6  81945955.888 6        40.200    20012036.023 8  81945892.885 8        52.700    20012042.746 9  78531534.310 9        54.300
G30  23536647.000 5 123685778.944 5        34.400    23536675.664 4  96378591.252 4        28.500    23536675.684 6  96378517.267 6        38.100    23536680.230 7  92362957.252 7        44.700
G01  25435176.469 4 133662732.114 4        26.800                                                    25435196.215 5 104152778.137 5        33.900    25435202.848 5  99813069.100 5        35.300
G20  24644739.258 5 129509214.357 5        32.600    24644768.426 2 100916205.901 2        14.800
G06  20986190.867 8 110283250.633 8        48.400    20986214.469 8  85935117.742 8        48.200    20986214.473 8  85935059.739 8        48.500    20986218.098 8  82354499.524 8        51.900
G24  25098601.953 5 131894099.657 5        32.800    25098630.410 3 102774679.931 3        20.900    25098629.219 5 102774570.936 5        32.900    25098636.020 6  98492321.514 6        39.500
G22  20538997.180 7 107933279.742 7        46.600    20539013.934 6  84103865.111 6        38.600
G03  22881343.617 6 120242229.737 6        36.800    22881368.707 4  93695453.610 4        29.800    22881368.582 6  93695398.607 6        38.200    22881373.391 7  89791410.309 7        44.500
G11  23054786.211 6 121153713.538 6        41.400    23054813.625 4  94405592.489 4        26.900    23054813.234 7  94405515.498 7        43.000    23054821.848 7  90472001.947 7        46.600
